sourceIndex,status,score,sourceName,seed,item,en,name,country,lat,lng,category,wikiEnTitle,wikiRuTitle,image,typeLabel,note
1108,importable,108,Badghis forest reserves,Badghis,Q611729,Hamun Lake,Хамун,Afghanistan,30.7653,61.6372,forest,Hamun Lake,Хамун,http://commons.wikimedia.org/wiki/Special:FilePath/Hamoun%20wetland%202020-05-09%2005.jpg,природоохранная зона,country:Afghanistan
1109,importable,108,Baghlan river gorges,Baghlan,Q974525,Panjshir Valley,Панджшерское ущелье,Afghanistan,35.266666666,69.466666666,desert,Panjshir Valley,Панджшерское ущелье,http://commons.wikimedia.org/wiki/Special:FilePath/Panjshir%20River%20Valley%20in%20May%202011.jpg,долина,country:Afghanistan
1111,importable,108,Bamian desert landscapes,Bamian,Q2088454,Registan Desert,Регистан (пустыня),Afghanistan,30.453408333,65.407105555,desert,Registan Desert,Регистан (пустыня),http://commons.wikimedia.org/wiki/Special:FilePath/Caravane%20dans%20le%20d%C3%A9sert%20du%20Registan%20%28Afghanistan%29%20en%201969.jpg,пустыня,country:Afghanistan
1113,importable,108,Faryab highland plateau,Faryab,Q5451,Himalayas,Гималаи,Afghanistan,29,84,mountain,Himalayas,Гималаи,http://commons.wikimedia.org/wiki/Special:FilePath/Himalayas.jpg,горный хребет,country:Afghanistan
1114,importable,108,Ghazni mountain valleys,Ghazni,Q5469,Karakoram,Каракорум (горная система),Afghanistan,35.883055555,76.508888888,mountain,Karakoram,Каракорум (горная система),http://commons.wikimedia.org/wiki/Special:FilePath/K2-big.jpg,горный хребет,country:Afghanistan
1110,importable,108,Balkh coastal wetlands,Balkh,Q8485,Ghorband River,Горбанд,Afghanistan,34.9996,69.3076,water,Ghorband River,Горбанд,http://commons.wikimedia.org/wiki/Special:FilePath/Afghanistan%20Bagram%20Valley.jpg,река,country:Afghanistan
1115,importable,108,Berat mountain valleys,Berat,Q73515,Deshat,Дешати,Albania,41.637222222,20.525,mountain,Deshat,Дешати,http://commons.wikimedia.org/wiki/Special:FilePath/%D0%92%D0%B5%D0%BB%D0%B8%D0%B2%D0%B0%D1%80%20%28%D0%94%D0%B5%D1%88%D0%B0%D1%82%29%2004.jpg,гора,country:Albania
1121,importable,108,Elbasan highland plateau,Elbasan,Q189915,Dinaric Alps,Динарское нагорье,Albania,44.028667506,16.723858769,mountain,Dinaric Alps,Динарское нагорье,http://commons.wikimedia.org/wiki/Special:FilePath/Orjen.jpg,горный хребет,country:Albania
1122,importable,108,Fier mountain valleys,Fier,Q615771,Accursed Mountains,Проклетие,Albania,42.442222222,19.812777777,mountain,Accursed Mountains,Проклетие,http://commons.wikimedia.org/wiki/Special:FilePath/Theth%20Radohima%20MajaArapit.jpg,горный хребет,country:Albania
1116,importable,108,Bulqize forest reserves,Bulqize,Q686088,Llogara National Park,Логара (национальный парк),Albania,40.21638889,19.57027778,forest,Llogara National Park,Логара (национальный парк),http://commons.wikimedia.org/wiki/Special:FilePath/Llogara%20pass.jpg,природоохранная зона,country:Albania
1117,importable,108,Delvine river gorges,Delvine,Q7108014,Osum Canyon,Каньон Осуми,Albania,40.47,20.255,desert,Osum Canyon,Каньон Осуми,http://commons.wikimedia.org/wiki/Special:FilePath/Osumi%20Canyons%20-%20Outside%20Corovoda%20-%20Albania%20-%2003%20%2842486434472%29.jpg,каньон,country:Albania
1120,importable,108,Durres lake district,Durres,Q204392,Lake Prespa,Преспа,Albania,40.9,21.05,water,Lake Prespa,Преспа,http://commons.wikimedia.org/wiki/Special:FilePath/Lake%20Prespa%20Albania.jpg,озеро,country:Albania
1124,importable,108,Ain Defla forest reserves,Ain Defla,Q2664197,Tlemcen National Park,Тлемсен (национальный парк),Algeria,34.706346,-1.459733,forest,Tlemcen National Park,Тлемсен (национальный парк),http://commons.wikimedia.org/wiki/Special:FilePath/Tlemcen%2C%20Algeria%20-%20Ruin%20of%20Mansoura.jpg,национальный парк,country:Algeria
1129,importable,108,Bechar highland plateau,Bechar,Q62624,Aurès Mountains,Орес (горы),Algeria,35.233333333,6.166666666,mountain,Aurès Mountains,Орес (горы),http://commons.wikimedia.org/wiki/Special:FilePath/Hammam%20Essalhine%20Aquae%20Flaviane%20Khenchela%20Mont%20View%202.jpg,горный хребет,country:Algeria
1130,importable,108,Bejaia mountain valleys,Bejaia,Q334948,Mount Chenoua,Шенуа (гора),Algeria,36.606388888,2.371666666,mountain,Mount Chenoua,Шенуа (гора),http://commons.wikimedia.org/wiki/Special:FilePath/Djebel%20Chenoua%20P-ad20071201-12h17m03s-ajg.jpg,гора,country:Algeria
1125,importable,108,Ain Temouchent river gorges,Ain Temouchent,Q307143,Grand Erg Oriental,Большой Восточный Эрг,Algeria,30,6,desert,Grand Erg Oriental,Большой Восточный Эрг,http://commons.wikimedia.org/wiki/Special:FilePath/Dune%2C%20Grand%20erg%20pr%C3%A8s%20de%20Ksar%20Ghilane%2C%20Tunisien%2C%202004.jpg,пустыня,country:Algeria
1127,importable,108,Annaba desert landscapes,Annaba,Q724484,M'zab,Мзаб (долина),Algeria,32.487222222,3.681388888,desert,M'zab,Мзаб (долина),http://commons.wikimedia.org/wiki/Special:FilePath/Ksar%20Beni%20Isguen%202.jpg,долина,country:Algeria
1134,importable,108,Swains Island coastal wetlands,Swains Island,Q642787,Atafu,Атафу,Tokelau,-8.558,-172.497,water,Atafu,Атафу,http://commons.wikimedia.org/wiki/Special:FilePath/Atafu.jpg,риф,country:Tokelau
1136,importable,108,Andorra la Vella mountain valleys,Andorra la Vella,Q24456,El Pas de la Casa,Пас-де-ла-Каса,Andorra,42.543736111,1.733736111,mountain,El Pas de la Casa,Пас-де-ла-Каса,http://commons.wikimedia.org/wiki/Special:FilePath/Pas%20de%20la%20case.jpg,перевал,country:Andorra
1141,importable,108,Canillo lake district,Canillo,Q24853,Gran Valira,Валира (река),Andorra,42.345833333,1.4425,water,Gran Valira,Валира (река),http://commons.wikimedia.org/wiki/Special:FilePath/Valira01.jpg,река,country:Andorra
1142,importable,108,Cuando Cubango highland plateau,Cuando Cubango,Q1348116,Mount Moco,Моко (гора),Angola,-12.466666666,15.183333333,mountain,Mount Moco,Моко (гора),http://commons.wikimedia.org/wiki/Special:FilePath/Moco.JPG,гора,country:Angola
1143,importable,108,Cuanza Norte mountain valleys,Cuanza Norte,Q3323145,Crystal Mountains (Africa),Хрустальные горы,Angola,-5.5,13.5,mountain,Crystal Mountains (Africa),Хрустальные горы,http://commons.wikimedia.org/wiki/Special:FilePath/Vue%20de%20Monts%20de%20Cristal.jpg,горный хребет,country:Angola
1149,importable,108,Australian Antarctic Territory desert landscapes,Australian Antarctic Territory,Q4076,Little Sandy Desert,Малая Песчаная пустыня,Australia,-25.26,121.86,desert,Little Sandy Desert,Малая Песчаная пустыня,http://commons.wikimedia.org/wiki/Special:FilePath/LittleSandyDesert%20near%20DurbaSpring.jpg,пустыня,country:Australia
1181,importable,108,Northern Territory river gorges,Northern Territory,Q25480,D'Entrecasteaux Channel,Пролив Д’Антркасто,Australia,-43.216666666,147.283333333,water,D'Entrecasteaux Channel,Пролив Д’Антркасто,http://commons.wikimedia.org/wiki/Special:FilePath/D%27Entrecasteaux.jpg,пролив,country:Australia
1183,importable,108,South Australia desert landscapes,South Australia,Q171846,Bass Strait,Бассов пролив,Australia,-40,146,water,Bass Strait,Бассов пролив,http://commons.wikimedia.org/wiki/Special:FilePath/Bass%20Strait%20islands.png,пролив,country:Australia
1422,importable,108,Horsburgh Island river gorges,Horsburgh Island,Q179188,Torres Strait,Торресов пролив,Australia,-9.833333333,142.5,water,Torres Strait,Торресов пролив,http://commons.wikimedia.org/wiki/Special:FilePath/Torres%20Strait.jpg,пролив,country:Australia
1151,importable,108,Antártica highland plateau,Antártica,Q538601,Terevaka,Теревака,Chile,-27.084444444,-109.379444444,mountain,Terevaka,Теревака,http://commons.wikimedia.org/wiki/Special:FilePath/Ma%CA%BBunga%20Terevaka.jpg,гора,country:Chile
1408,importable,108,Libertador General Bernardo O'Higgins highland plateau,Libertador General Bernardo O'Higgins,Q576985,Antillanca Group,Антилланка (комплекс вулканов),Chile,-40.774722222,-72.156388888,volcano,Antillanca Group,Антилланка (комплекс вулканов),http://commons.wikimedia.org/wiki/Special:FilePath/DonPedro%20Antillanca.jpg,горный хребет,country:Chile
1152,importable,108,Argentine Antarctica mountain valleys,Argentine Antarctica,Q5456,Andes,Анды,Argentina,-16.87815,-70.30151,mountain,Andes,Анды,http://commons.wikimedia.org/wiki/Special:FilePath/Andes%2070.30345W%2042.99203S.jpg,горный хребет,country:Argentina
1168,importable,108,Corrientes mountain valleys,Corrientes,Q233836,Ojos del Salado,Охос-дель-Саладо,Argentina,-27.109722222,-68.541388888,mountain,Ojos del Salado,Охос-дель-Саладо,http://commons.wikimedia.org/wiki/Special:FilePath/Ojos%20del%20Salado%20summit.jpg,гора,country:Argentina
1153,importable,108,Barbuda mountain valleys,Barbuda,Q1718336,Boggy Peak,Холм Богги,Antigua and Barbuda,17.05,-61.85,mountain,Boggy Peak,Холм Богги,http://commons.wikimedia.org/wiki/Special:FilePath/Boggy%20Peak.JPG,гора,country:Antigua and Barbuda
1163,importable,108,Buenos Aires Capital Federal river gorges,Buenos Aires Capital Federal,Q143650,Drake Passage,Пролив Дрейка,Argentina,-58.580277777,-62.909444444,water,Drake Passage,Пролив Дрейка,http://commons.wikimedia.org/wiki/Special:FilePath/00%201470%20Iceberg%20-%20Drake%20Passage.jpg,пролив,country:Argentina
1169,importable,108,Aragatsotn mountain valleys,Aragatsotn,Q203568,Mount Aragats,Арагац,Armenia,40.523055555,44.195277777,mountain,Mount Aragats,Арагац,http://commons.wikimedia.org/wiki/Special:FilePath/Mount%20Aragats%202020-05-11.jpg,гора,country:Armenia
1176,importable,108,Syunik' mountain valleys,Syunik',Q211263,Armenian highlands,Армянское нагорье,Armenia,39.7,44.3,mountain,Armenian highlands,Армянское нагорье,http://commons.wikimedia.org/wiki/Special:FilePath/Khor%20Virap%20Monastery%20and%20Mount%20Ararat%2C%20Armenia.jpg,горный хребет,country:Armenia
1177,importable,108,Aruba mountain valleys,Aruba,Q594885,Jamanota,Яманота,Aruba,12.487222222,-69.940277777,mountain,Jamanota,Яманота,http://commons.wikimedia.org/wiki/Special:FilePath/Sero%20Jamanota%2C%20Aruba.jpg,гора,country:Aruba
1179,importable,108,Australian Capital Territory mountain valleys,Australian Capital Territory,Q178167,Mount Kosciuszko,Косцюшко (гора),Australia,-36.4558303,148.2635105,mountain,Mount Kosciuszko,Косцюшко (гора),http://commons.wikimedia.org/wiki/Special:FilePath/Kosciuszko%20Townsend.jpg,гора,country:Australia
1186,importable,108,Western Australia mountain valleys,Western Australia,Q185611,Federation Peak,Федерейшен-Пик,Australia,-43.271388888,146.475555555,mountain,Federation Peak,Федерейшен-Пик,http://commons.wikimedia.org/wiki/Special:FilePath/Federation%20Peak.jpg,гора,country:Australia
1418,importable,108,Christmas Island mountain valleys,Christmas Island,Q130217,Mount Bogong,Богонг (гора),Australia,-36.7325,147.305833333,mountain,Mount Bogong,Богонг (гора),http://commons.wikimedia.org/wiki/Special:FilePath/Mount%20Bogong.jpg,гора,country:Australia
1180,importable,108,New South Wales forest reserves,New South Wales,Q68472,Great Otway National Park,Грейт-Отуэй,Australia,-38.7733,143.557,forest,Great Otway National Park,Грейт-Отуэй,http://commons.wikimedia.org/wiki/Special:FilePath/Lake%20elizabeth.jpg,природоохранная зона,country:Australia
1421,importable,108,Home Island forest reserves,Home Island,Q80343,West Cape Howe National Park,Уэст-Кейп-Хоуи,Australia,-35.1061,117.593,forest,West Cape Howe National Park,Уэст-Кейп-Хоуи,http://commons.wikimedia.org/wiki/Special:FilePath/2002%20-%20View%20across%20Shelley%20Beach%20to%20West%20Cape%20Howe%2C%20WA%20-%20panoramio.jpg,природоохранная зона,country:Australia
1187,importable,108,Burgenland mountain valleys,Burgenland,Q95747,Alpine Rhine Valley,Альпийский Рейн,Austria,46.823441,9.407769,desert,Alpine Rhine Valley,Альпийский Рейн,http://commons.wikimedia.org/wiki/Special:FilePath/2012-11-08%2009-10-56%20Deutschland%20Baden-W%C3%BCrttemberg%20Wangen%20im%20Allg%C3%A4u%20Riehlings.JPG,долина,country:Austria
1194,importable,108,Vorarlberg mountain valleys,Vorarlberg,Q666531,Naafkopf,Нафкопф,Austria,47.060705555,9.607152777,mountain,Naafkopf,Нафкопф,http://commons.wikimedia.org/wiki/Special:FilePath/Naafkopf.jpg,гора,country:Austria
1188,importable,108,Kaernten forest reserves,Kaernten,Q696014,Hohe Tauern National Park,Высокий Тауэрн (национальный парк),Austria,47.13556,12.32529,forest,Hohe Tauern National Park,Высокий Тауэрн (национальный парк),http://commons.wikimedia.org/wiki/Special:FilePath/Jungfernsprung%20im%20Nationalpark%20Hohe%20Tauern.JPG,национальный парк,country:Austria
1182,importable,108,Queensland coastal wetlands,Queensland,Q180844,Gulf of Carpentaria,Карпентария,Australia,-13.75,139,water,Gulf of Carpentaria,Карпентария,http://commons.wikimedia.org/wiki/Special:FilePath/Gulf%20of%20Carpentaria-MODIS%20250m.jpg,залив,country:Australia
1184,importable,108,Tasmania lake district,Tasmania,Q181482,Darling River,Дарлинг (река),Australia,-34.1117,141.9078,water,Darling River,Дарлинг (река),http://commons.wikimedia.org/wiki/Special:FilePath/Darling-near-Bourke.jpg,река,country:Australia
1423,importable,108,North Keeling Island coastal wetlands,North Keeling Island,Q183078,Murray River,Муррей (река),Australia,-35.5589,138.88,water,Murray River,Муррей (река),http://commons.wikimedia.org/wiki/Special:FilePath/Murray%20River%20at%20Boundary%20Bend.jpg,река,country:Australia
1189,importable,108,Niederoesterreich river gorges,Niederoesterreich,Q192201,Wachau,Вахау,Austria,48.36444,15.43417,desert,Wachau,Вахау,http://commons.wikimedia.org/wiki/Special:FilePath/Wachau%20%282%29.JPG,долина,country:Austria
1191,importable,108,Salzburg desert landscapes,Salzburg,Q203139,Zillertal,Циллерталь,Austria,47.333333333,11.866666666,desert,Zillertal,Циллерталь,http://commons.wikimedia.org/wiki/Special:FilePath/Zillertaler%20Berglandschaft.jpg,долина,country:Austria
1190,importable,108,Oberoesterreich coastal wetlands,Oberoesterreich,Q106588,Isar,Изар,Austria,47.375555555,11.408055555,water,Isar,Изар,http://commons.wikimedia.org/wiki/Special:FilePath/Georgenstein%20Ostufer.jpg,река,country:Austria
1192,importable,108,Steiermark lake district,Steiermark,Q152661,Salzach,Зальцах,Austria,47.3,12.1157,water,Salzach,Зальцах,http://commons.wikimedia.org/wiki/Special:FilePath/Salzach%20near%20werfen%2020040828.jpg,река,country:Austria
1203,importable,108,Acklins and Crooked Islands mountain valleys,Acklins and Crooked Islands,Q746274,Mount Alvernia,Алверния,The Bahamas,24.294166666,-75.408333333,mountain,Mount Alvernia,Алверния,http://commons.wikimedia.org/wiki/Special:FilePath/The%20Hermitage%2C%20Cat%20Island%2C%20Bahamas.jpg,гора,country:The Bahamas
1206,importable,108,Exuma coastal wetlands,Exuma,Q341919,Acklins,Аклинс,The Bahamas,22.45,-73.95,water,Acklins,Аклинс,http://commons.wikimedia.org/wiki/Special:FilePath/Acklins.JPG,остров,country:The Bahamas
1208,importable,108,Fresh Creek lake district,Fresh Creek,Q845540,San Salvador Island,Сан-Сальвадор (Багамские острова),The Bahamas,24.035,-74.4975,water,San Salvador Island,Сан-Сальвадор (Багамские острова),http://commons.wikimedia.org/wiki/Special:FilePath/Grahams%20Harbour%201.JPG,остров,country:The Bahamas
1213,importable,108,Al Mintaqah al Gharbiyah river gorges,Al Mintaqah al Gharbiyah,Q633504,Sakhir,Сахир (пустыня),Bahrain,26.033333,50.516667,desert,Sakhir,Сахир (пустыня),http://commons.wikimedia.org/wiki/Special:FilePath/Tree%20of%20Life%2C%20Bahrain%20-%20%E0%B4%9C%E0%B5%80%E0%B4%B5%E0%B4%A8%E0%B5%8D%E0%B4%B1%E0%B5%86%20%E0%B4%AE%E0%B4%B0%E0%B4%82%2C%20%E0%B4%AC%E0%B4%B9%E0%B5%8D%E0%B4%B1%E0%B5%88%E0%B5%BB%2001.JPG,пустыня,country:Bahrain
1216,importable,108,Al Muharraq lake district,Al Muharraq,Q34675,Persian Gulf,Персидский залив,Bahrain,26,52,water,Persian Gulf,Персидский залив,http://commons.wikimedia.org/wiki/Special:FilePath/PersianGulf%20vue%20satellite%20du%20golfe%20persique.jpg,залив,country:Bahrain
1193,importable,108,Tirol highland plateau,Tirol,Q203241,Marmolada,Мармолада,Italy,46.424444444,11.85,mountain,Marmolada,Мармолада,http://commons.wikimedia.org/wiki/Special:FilePath/Marmolata%2C%203343m.jpg,горный хребет,country:Italy
1820,importable,108,Abruzzo mountain valleys,Abruzzo,Q207323,Vulcano,Вулькано,Italy,38.4042,14.9658,mountain,Vulcano,Вулькано,http://commons.wikimedia.org/wiki/Special:FilePath/Aerial%20image%20of%20Vulcano%20%28view%20from%20the%20east%29.jpg,гора,country:Italy
1826,importable,108,Lazio highland plateau,Lazio,Q586646,Monte Massico,Массико,Italy,41.1629649,13.9171317,mountain,Monte Massico,Массико,http://commons.wikimedia.org/wiki/Special:FilePath/Sessa%20Aurunca%20sud-est.jpg,горный хребет,country:Italy
1827,importable,108,Liguria mountain valleys,Liguria,Q595382,Sella Pass,Селла (перевал),Italy,46.506666666,11.757222222,mountain,Sella Pass,Селла (перевал),http://commons.wikimedia.org/wiki/Special:FilePath/070406-10%20Sellajoch.jpg,перевал,country:Italy
1222,importable,108,Mymensingh coastal wetlands,Mymensingh,Q38684,Bay of Bengal,Бенгальский залив,Bangladesh,15,88,water,Bay of Bengal,Бенгальский залив,http://commons.wikimedia.org/wiki/Special:FilePath/India%20satellite%20image.png,залив,country:Bangladesh
1224,importable,108,Rajshahi lake district,Rajshahi,Q45403,Brahmaputra River,Брахмапутра,Bangladesh,26.200722222,91.746833333,water,Brahmaputra River,Брахмапутра,http://commons.wikimedia.org/wiki/Special:FilePath/Brahmaputra%20River%20Homeward%20bound.jpg,река,country:Bangladesh
1242,importable,108,Antwerpen mountain valleys,Antwerpen,Q151985,Ardennes,Арденны (горы),Belgium,50.25,5.666666666,mountain,Ardennes,Арденны (горы),http://commons.wikimedia.org/wiki/Special:FilePath/Frahan%20JPG01.jpg,горный хребет,country:Belgium
1249,importable,108,Namur mountain valleys,Namur,Q313834,Rhenish Massif,Рейнские Сланцевые горы,Belgium,50.365555555,7.606277777,mountain,Rhenish Massif,Рейнские Сланцевые горы,http://commons.wikimedia.org/wiki/Special:FilePath/Frahan%20JPG01.jpg,горный хребет,country:Belgium
1243,importable,108,Brabant Wallon forest reserves,Brabant Wallon,Q36856,Zwin,Звин,Belgium,51.36696,3.36911,forest,Zwin,Звин,http://commons.wikimedia.org/wiki/Special:FilePath/Zwin.jpg,природоохранная зона,country:Belgium
1248,importable,108,Luxembourg highland plateau,Luxembourg,Q298176,Éislek,Эслинг,Luxembourg,50,6,mountain,Éislek,Эслинг,http://commons.wikimedia.org/wiki/Special:FilePath/Erpeldange-S%C3%BBre%2C%20panneau%20%C3%89islek%20%28102%29.jpg,горный хребет,country:Luxembourg
1250,importable,108,Belize mountain valleys,Belize,Q47490,Doyle's Delight,Дойлс-Делайт,Belize,16.5,-89.05,mountain,Doyle's Delight,Дойлс-Делайт,http://commons.wikimedia.org/wiki/Special:FilePath/Doyle%27s%20Delight.jpg,гора,country:Belize
1256,importable,108,Alibori mountain valleys,Alibori,Q581452,Togo Mountains,Атакора,Benin,7.416666666,0.666666666,mountain,Togo Mountains,Атакора,http://commons.wikimedia.org/wiki/Special:FilePath/Atakora-Auslaufer.JPG,горный хребет,country:Benin
1259,importable,108,Borgou coastal wetlands,Borgou,Q3542,Niger River,Нигер (река),Benin,9.097222222,-10.682777777,water,Niger River,Нигер (река),http://commons.wikimedia.org/wiki/Special:FilePath/Niger%20River%20View%2C%20Djenne%20%286861797%29.jpg,река,country:Benin
1261,importable,108,Couffo lake district,Couffo,Q252472,Oti River,Оти (река),Benin,8.344583333,0.233833333,water,Oti River,Оти (река),http://commons.wikimedia.org/wiki/Special:FilePath/Pendjari%20Fluss.JPG,река,country:Benin
1375,importable,108,Porto Novo lake district,Porto Novo,Q268624,Mono River,Моно (река),Benin,6.29073,1.86716,water,Mono River,Моно (река),http://commons.wikimedia.org/wiki/Special:FilePath/Togo-karte-politisch.png,река,country:Benin
1273,importable,108,Chhukha forest reserves,Chhukha,Q3848508,Eastern Himalayan subalpine conifer forests,Восточногималайские субальпийские хвойные леса,Bhutan,28,84,forest,Eastern Himalayan subalpine conifer forests,Восточногималайские субальпийские хвойные леса,http://commons.wikimedia.org/wiki/Special:FilePath/GangkharPuensum3.jpg,лес,country:Bhutan
1276,importable,108,Geylegphug desert landscapes,Geylegphug,Q4517108,Bumthang Valley,Чокхор (долина),Bhutan,27.55,90.75,desert,Bumthang Valley,Чокхор (долина),http://commons.wikimedia.org/wiki/Special:FilePath/Bumthang-Tal%20in%20Bhutan.jpg,долина,country:Bhutan
1277,importable,108,Lhuntshi lake district,Lhuntshi,Q5636418,Ha Chhu,Ха-Чу,Bhutan,27.5335,89.1162,water,Ha Chhu,Ха-Чу,http://commons.wikimedia.org/wiki/Special:FilePath/HaaValley.jpg,река,country:Bhutan
1278,importable,108,Mongar highland plateau,Mongar,Q18457036,Liankang Kangri,Лянканг-Кангри,Bhutan,28.06399155,90.44345856,mountain,Liankang Kangri,Лянканг-Кангри,http://commons.wikimedia.org/wiki/Special:FilePath/082%20-%20Gangkar%20Puensum%20-%207%2C570m%20%28Dochula%20pass%29%20%284677022812%29.jpg,гора,country:Bhutan
1282,importable,108,Cochabamba river gorges,Cochabamba,Q187551,Strait of Tiquina,Тикина,Bolivia,-16.2191,-68.8504,water,Strait of Tiquina,Тикина,http://commons.wikimedia.org/wiki/Special:FilePath/00%201652%20Ferry%20across%20Lake%20Titicaca%20-%20Altiplano.jpg,пролив,country:Bolivia
1284,importable,108,Oruro desert landscapes,Oruro,Q1382079,Salvador Dalí Desert,Пустыня Сальвадора Дали,Bolivia,-22.614984,-67.6637769,desert,Salvador Dalí Desert,Пустыня Сальвадора Дали,http://commons.wikimedia.org/wiki/Special:FilePath/Desierto%20de%20Dal%C3%AD%2C%20Bolivia%2C%202016-02-02%2C%20DD%20107.JPG,пустыня,country:Bolivia
1283,importable,108,La Paz coastal wetlands,La Paz,Q21794804,Tajzara Lake,Тахсара,Bolivia,-21.71673,-65.07058,water,Tajzara Lake,Тахсара,http://commons.wikimedia.org/wiki/Special:FilePath/Espejo%20Magico.jpg,озеро,country:Bolivia
1558,importable,108,La Paz lake district,La Paz,Q117615,Mamoré River,Маморе,Bolivia,-15.944758333,-64.755883333,water,Mamoré River,Маморе,http://commons.wikimedia.org/wiki/Special:FilePath/R%C3%ADo%20Mamor%C3%A9%20-%20Bolivia.jpg,река,country:Bolivia
1288,importable,108,Federation of Bosnia and Herzegovina mountain valleys,Federation of Bosnia and Herzegovina,Q44945,Lebršnik,Лебршник (гора),Bosnia and Herzegovina,43.207273,18.650153,mountain,Lebršnik,Лебршник (гора),http://commons.wikimedia.org/wiki/Special:FilePath/Izgori%20pogled%20na%20Lebr%C5%A1nik.jpg,гора,country:Bosnia and Herzegovina
1289,importable,108,Republika Srpska forest reserves,Republika Srpska,Q1262800,Sutjeska National Park,Национальный парк Сутьеска,Bosnia and Herzegovina,43.337,18.684,forest,Sutjeska National Park,Национальный парк Сутьеска,http://commons.wikimedia.org/wiki/Special:FilePath/Perucica.jpg,природоохранная зона,country:Bosnia and Herzegovina
1293,importable,108,Gaborone coastal wetlands,Gaborone,Q4167466,Lotsane River,Лоцани,Botswana,-22.698127777,26.380033333,water,Lotsane River,Лоцани,http://commons.wikimedia.org/wiki/Special:FilePath/Lotsane%20river%20after%20flood.jpg,река,country:Botswana
1299,importable,108,Alagoas forest reserves,Alagoas,Q10345072,Guartelá State Park,Гуартела (парк штата),Brazil,-24.562054,-50.256411,forest,Guartelá State Park,Гуартела (парк штата),http://commons.wikimedia.org/wiki/Special:FilePath/Guartel%C3%A1.jpg,природоохранная зона,country:Brazil
1240,importable,108,Minskaya lake district,Minskaya,Q80240,Ural (river),Урал (река),Russia,46.883888888,51.616944444,water,Ural (river),Урал (река),http://commons.wikimedia.org/wiki/Special:FilePath/Ural%20river.jpg,река,country:Russia
1302,importable,108,Bahia desert landscapes,Bahia,Q10263006,Guartelá Canyon,Гуартела (каньон),Brazil,-24.54944444,-50.26944444,desert,Guartelá Canyon,Гуартела (каньон),http://commons.wikimedia.org/wiki/Special:FilePath/Canion%20guartela.JPG,каньон,country:Brazil
1303,importable,108,Ceara lake district,Ceara,Q253986,Tefé River,Тефе (река),Brazil,-4.470555555,-65.4925,water,Tefé River,Тефе (река),http://commons.wikimedia.org/wiki/Special:FilePath/Rio%20Tefe.jpg,река,country:Brazil
1305,importable,108,Espirito Santo mountain valleys,Espirito Santo,Q118899,Brazilian Highlands,Бразильское плоскогорье,Brazil,-17.673239,-49.200004,mountain,Brazilian Highlands,Бразильское плоскогорье,http://commons.wikimedia.org/wiki/Special:FilePath/Vista%20panor%C3%A2mica%20do%20Parque%20nacional%20da%20Chapada%20dos%20Guimar%C3%A3es.JPG,горный хребет,country:Brazil
1307,importable,108,Jost Van Dyke forest reserves,Jost Van Dyke,Q116661,Loch Lomond and The Trossachs National Park,Лох-Ломонд-энд-те-Троссахс,United Kingdom,56.25,-4.61667,forest,Loch Lomond and The Trossachs National Park,Лох-Ломонд-энд-те-Троссахс,http://commons.wikimedia.org/wiki/Special:FilePath/Argyll%20Forest%20Park%20008.jpg,природоохранная зона,country:United Kingdom
1311,importable,108,Brunei and Muara forest reserves,Brunei and Muara,Q2913503,Borneo lowland rain forests,Борнейские равнинные дождевые леса,Brunei,-2,114,forest,Borneo lowland rain forests,Борнейские равнинные дождевые леса,http://commons.wikimedia.org/wiki/Special:FilePath/Gunung%20Palung%20Jungle.jpg,лес,country:Brunei
1314,importable,108,Blagoevgrad mountain valleys,Blagoevgrad,Q6489,Rhodope Mountains,Родопы,Bulgaria,41.601111111,24.574166666,mountain,Rhodope Mountains,Родопы,http://commons.wikimedia.org/wiki/Special:FilePath/Rhodopen%20Balkan%20topo%20de.jpg,горный хребет,country:Bulgaria
1320,importable,108,Kyustendil highland plateau,Kyustendil,Q46499,Ruen (mountain),Руен (гора),Bulgaria,42.15798056,22.51632222,mountain,Ruen (mountain),Руен (гора),http://commons.wikimedia.org/wiki/Special:FilePath/Ruen%20IMG%204742.jpg,гора,country:Bulgaria
1321,importable,108,Lovech mountain valleys,Lovech,Q111676,Sakar (mountain),Сакар (гора),Bulgaria,41.983333333,26.266666666,mountain,Sakar (mountain),Сакар (гора),http://commons.wikimedia.org/wiki/Special:FilePath/Sakar%20Mountain%20Bulgaria.jpg,горный хребет,country:Bulgaria
1315,importable,108,Burgas forest reserves,Burgas,Q1648563,Kaliakra,Калиакра,Bulgaria,43.36126,28.46549,forest,Kaliakra,Калиакра,http://commons.wikimedia.org/wiki/Special:FilePath/Kaliakra.JPG,природоохранная зона,country:Bulgaria
1316,importable,108,Dobrich river gorges,Dobrich,Q768480,"Rose Valley, Bulgaria",Долина роз (Болгария),Bulgaria,42.58333,25.16667,desert,"Rose Valley, Bulgaria",Долина роз (Болгария),http://commons.wikimedia.org/wiki/Special:FilePath/Roses%20pickers%20in%20roses%20vally%2C%20kazanlak%2C%20bulgaria.jpg,долина,country:Bulgaria
1318,importable,108,Khaskovo desert landscapes,Khaskovo,Q3110994,Trigrad Gorge,Триградское ущелье,Bulgaria,41.6167,24.3792,desert,Trigrad Gorge,Триградское ущелье,http://commons.wikimedia.org/wiki/Special:FilePath/Trigrad%20gorge.jpg,каньон,country:Bulgaria
1317,importable,108,Gabrovo coastal wetlands,Gabrovo,Q1653,Danube,Дунай,Bulgaria,45.221944444,29.743333333,water,Danube,Дунай,http://commons.wikimedia.org/wiki/Special:FilePath/Budapest%20from%20Gellert%20Hill.jpg,река,country:Bulgaria
1319,importable,108,Kurdzhali lake district,Kurdzhali,Q385652,Gulf of Burgas,Бургасский залив,Bulgaria,42.5,27.58333333,water,Gulf of Burgas,Бургасский залив,http://commons.wikimedia.org/wiki/Special:FilePath/Ivanpetarkirik.jpg,залив,country:Bulgaria
1325,importable,108,Bazega coastal wetlands,Bazega,Q192415,Volta River,Вольта (река),Burkina Faso,8.648741,-0.982618,water,Volta River,Вольта (река),http://commons.wikimedia.org/wiki/Special:FilePath/VoltaRiverWithAdombeBridge183-1-.jpg,река,country:Burkina Faso
1327,importable,108,Boulgou lake district,Boulgou,Q1328852,Sirba River,Сирба,Burkina Faso,12.26539,-0.56499,water,Sirba River,Сирба,http://commons.wikimedia.org/wiki/Special:FilePath/River%20Niger%20Tributaries%20from%20Burkina%20Faso%20OSM.png,река,country:Burkina Faso
1333,importable,108,Kachin State coastal wetlands,Kachin State,Q26076,Irrawaddy River,Иравади (река),Myanmar,15.777608,95.063546,water,Irrawaddy River,Иравади (река),http://commons.wikimedia.org/wiki/Special:FilePath/Sagaing%2C%20Myanmar.jpg,река,country:Myanmar
1335,importable,108,Kayin State lake district,Kayin State,Q26422,Salween River,Салуин,Myanmar,16.150638888,97.557194444,water,Salween River,Салуин,http://commons.wikimedia.org/wiki/Special:FilePath/%E6%80%92%E6%B1%9F%E7%A6%8F%E8%B4%A1%E6%AE%B5%20-%20%E8%88%AA%E6%8B%8D%20-%202024-06-01%2005.jpg,река,country:Myanmar
1337,importable,108,Mandalay mountain valleys,Mandalay,Q625425,Arakan Mountains,Ракхайн (хребет),Myanmar,21.2667,93.95,mountain,Arakan Mountains,Ракхайн (хребет),http://commons.wikimedia.org/wiki/Special:FilePath/Naf%20River%202.JPG,горный хребет,country:Myanmar
1338,importable,108,Bubanza mountain valleys,Bubanza,Q1649074,Mount Heha,Хеха (гора),Burundi,-3.603333333,29.499166666,mountain,Mount Heha,Хеха (гора),http://commons.wikimedia.org/wiki/Special:FilePath/Mont%20Heha%20Cropped.jpg,гора,country:Burundi
1339,importable,108,Bujumbura forest reserves,Bujumbura,Q5118378,Karera waterfalls,Карера,Burundi,-3.83,30.08,forest,Karera waterfalls,Карера,http://commons.wikimedia.org/wiki/Special:FilePath/La%20chute%20de%20karera%20nyakayi%201%20%C3%A0%20Rutana.jpg,природоохранная зона,country:Burundi
1341,importable,108,Cankuzo coastal wetlands,Cankuzo,Q748195,Ruzizi River,Рузизи (река),Burundi,-3.364444444,29.268333333,water,Ruzizi River,Рузизи (река),http://commons.wikimedia.org/wiki/Special:FilePath/La%20Rivi%C3%A8re%20du%20parc%20national%20rusizi.jpg,река,country:Burundi
1343,importable,108,Gitega lake district,Gitega,Q1808777,Lake Rweru,Ругверо,Burundi,-2.377777777,30.323611111,water,Lake Rweru,Ругверо,http://commons.wikimedia.org/wiki/Special:FilePath/Lakes%20of%20Burundi.jpg,озеро,country:Burundi
1346,importable,108,Banteay Mean Cheay mountain valleys,Banteay Mean Cheay,Q956515,Phnom Kulen,Кулен (плато),Cambodia,13.612777777,104.1125,mountain,Phnom Kulen,Кулен (плато),http://commons.wikimedia.org/wiki/Special:FilePath/Phnom%20Kulen8.JPG,гора,country:Cambodia
1352,importable,108,Kampot highland plateau,Kampot,Q960387,Phnom Krom,Краом,Cambodia,13.28573,103.81218,mountain,Phnom Krom,Краом,http://commons.wikimedia.org/wiki/Special:FilePath/Phnom%20Krom%20006.jpg,гора,country:Cambodia
1347,importable,108,Batdambang forest reserves,Batdambang,Q4930573,Ream National Park,Реам (национальный парк),Cambodia,10.50640943,103.73436445,forest,Ream National Park,Реам (национальный парк),http://commons.wikimedia.org/wiki/Special:FilePath/Nature%20of%20Cambodia.%20Ream.jpg,природоохранная зона,country:Cambodia
1362,importable,108,Alberta mountain valleys,Alberta,Q178031,Yellowhead Pass,Йеллоухед (перевал),Canada,52.891389,-118.464444,mountain,Yellowhead Pass,Йеллоухед (перевал),http://commons.wikimedia.org/wiki/Special:FilePath/CNR%20Yellowhead.jpg,перевал,country:Canada
1368,importable,108,Nova Scotia highland plateau,Nova Scotia,Q183027,Mount Garibaldi,Гарибальди (вулкан),Canada,49.850555555,-123.004722222,volcano,Mount Garibaldi,Гарибальди (вулкан),http://commons.wikimedia.org/wiki/Special:FilePath/Mount%20Garibaldi%20West%20Face.jpg,гора,country:Canada
1369,importable,108,Nunavut mountain valleys,Nunavut,Q283784,Ogilvie Mountains,Огилви (горы),Canada,64.58283,-138.2544,mountain,Ogilvie Mountains,Огилви (горы),http://commons.wikimedia.org/wiki/Special:FilePath/Tombstone%20Mountain%202007.JPG,горный хребет,country:Canada
1363,importable,108,British Columbia forest reserves,British Columbia,Q1331433,Elk Island National Park,Элк-Айленд,Canada,53.6144,-112.866,forest,Elk Island National Park,Элк-Айленд,http://commons.wikimedia.org/wiki/Special:FilePath/Bison%20Elk%20Island.jpg,природоохранная зона,country:Canada
1364,importable,108,Manitoba river gorges,Manitoba,Q189262,Davis Strait,Девисов пролив,Canada,65,-58,water,Davis Strait,Девисов пролив,http://commons.wikimedia.org/wiki/Special:FilePath/0201bay.jpg,пролив,country:Canada
1366,importable,108,Newfoundland desert landscapes,Newfoundland,Q207702,Hudson Strait,Гудзонов пролив,Canada,62.493333333,-71.961944444,water,Hudson Strait,Гудзонов пролив,http://commons.wikimedia.org/wiki/Special:FilePath/Salisbury%20Island%2C%20Nunavut.jpg,пролив,country:Canada
1376,importable,108,Praia highland plateau,Praia,Q2671287,Tope de Coroa,Короа,Cape Verde,17.033333333,-25.295833333,mountain,Tope de Coroa,Короа,http://commons.wikimedia.org/wiki/Special:FilePath/Santo%20Ant%C3%A3o%20294A9888%20Topo%20da%20Coroa.jpg,гора,country:Cape Verde
1389,importable,108,Gribingui coastal wetlands,Gribingui,Q2591927,Kadéï River,Кадеи,Central African Republic,3.51944444,16.04305556,water,Kadéï River,Кадеи,http://commons.wikimedia.org/wiki/Special:FilePath/Confluence%20Kadei%20and%20Mambere.jpg,река,country:Central African Republic
1391,importable,108,Haute-Kotto lake district,Haute-Kotto,Q3327129,Mpoko River,Мпоко,Central African Republic,4.32416667,18.54222222,water,Mpoko River,Мпоко,http://commons.wikimedia.org/wiki/Special:FilePath/Berge%20bimbo%20pk9%20en%20RCA%2003.jpg,река,country:Central African Republic
1403,importable,108,Antofagasta forest reserves,Antofagasta,Q680312,Conguillío National Park,Конгильио (национальный парк),Chile,-38.66666667,-71.65,forest,Conguillío National Park,Конгильио (национальный парк),http://commons.wikimedia.org/wiki/Special:FilePath/Araucaria%20araucana%20-%20Parque%20Nacional%20Conguill%C3%ADo%20por%20lautaroj%20-%20001.jpg,природоохранная зона,country:Chile
1405,importable,108,Atacama coastal wetlands,Atacama,Q4534,Andalién River,Андалиен,Chile,-36.7394,-73.0161,water,Andalién River,Андалиен,http://commons.wikimedia.org/wiki/Special:FilePath/Puente%20Ferroviario%20sobre%20el%20r%C3%ADo%20Andali%C3%A9n.JPG,река,country:Chile
1407,importable,108,Coquimbo lake district,Coquimbo,Q37854,Huilo-Huilo Falls,Уило-Уило,Chile,-39.853333333,-71.954444444,water,Huilo-Huilo Falls,Уило-Уило,http://commons.wikimedia.org/wiki/Special:FilePath/Salto%20de%20Huilo%20Huilo.jpg,водопад,country:Chile
1365,importable,108,New Brunswick coastal wetlands,New Brunswick,Q292117,Notre Dame Island,Нотр-Дам (остров),Canada,45.508230555,-73.527388888,water,Notre Dame Island,Нотр-Дам (остров),http://commons.wikimedia.org/wiki/Special:FilePath/Parc%20Jean-Drapeau%20Montr%C3%A9al.jpg,остров,country:Canada
1367,importable,108,Northwest Territories lake district,Northwest Territories,Q292158,Saint Helen's Island,Остров Святой Елены (Квебек),Canada,45.51957,-73.53476,water,Saint Helen's Island,Остров Святой Елены (Квебек),http://commons.wikimedia.org/wiki/Special:FilePath/Parc%20Jean%20Drapeau%20%40%20Ile%20Sainte-H%C3%A9l%C3%A8ne%20%40%20Montreal%20%2830129330550%29.jpg,остров,country:Canada
1425,importable,108,West Island lake district,West Island,Q292194,Île Vanier,Ванье (остров),Canada,76.166667,-103.25,water,Île Vanier,Ванье (остров),http://commons.wikimedia.org/wiki/Special:FilePath/Ilevanier.png,остров,country:Canada
1410,importable,108,Anhui mountain valleys,Anhui,Q1152132,Yin Mountains,Иньшань,China,41.28194,108.8025,mountain,Yin Mountains,Иньшань,http://commons.wikimedia.org/wiki/Special:FilePath/%E8%BF%9C%E6%9C%9B%E6%95%96%E5%8C%85%E5%B1%B1%20-%20panoramio.jpg,горный хребет,country:People's Republic of China
1416,importable,108,Guangxi highland plateau,Guangxi,Q1154854,Mount Jiuhua,Цзюхуашань,China,30.482222,117.804444,mountain,Mount Jiuhua,Цзюхуашань,http://commons.wikimedia.org/wiki/Special:FilePath/Jiuhuashan%20yunhai.JPG,гора,country:People's Republic of China
1417,importable,108,Guizhou mountain valleys,Guizhou,Q1156502,Daba Mountains,Дабашань,China,32,109.5,mountain,Daba Mountains,Дабашань,http://commons.wikimedia.org/wiki/Special:FilePath/20250524%20%E7%A5%9E%E8%BE%B2%E9%A0%82%20ShenNong%20Ding%20%E6%B5%B7%E6%8B%94%20Altitude%203106.2%20M.jpg,горный хребет,country:People's Republic of China
1749,importable,108,Hong Kong mountain valleys,Hong Kong,Q107635,Mount Paektu,Пэктусан,China,40.94,126.83,mountain,Mount Paektu,Пэктусан,http://commons.wikimedia.org/wiki/Special:FilePath/Baitou%20Mountain%20Tianchi.jpg,гора,country:People's Republic of China
1411,importable,108,Beijing forest reserves,Beijing,Q197132,Zhalong Nature Reserve,Чжалун,China,47.2,124.25,forest,Zhalong Nature Reserve,Чжалун,http://commons.wikimedia.org/wiki/Special:FilePath/%E4%B8%B9%E9%A1%B6%E9%B9%A41-%E6%89%8E%E9%BE%992017.jpg,природоохранная зона,country:People's Republic of China
1412,importable,108,Chongqing river gorges,Chongqing,Q127031,Taiwan Strait,Тайваньский пролив,China,24.811111111,119.928333333,water,Taiwan Strait,Тайваньский пролив,http://commons.wikimedia.org/wiki/Special:FilePath/Xiamen%20Island%2C%20Lieyu%20Island%20and%20Kinmen%20Island.jpg,пролив,country:People's Republic of China
1414,importable,108,Gansu desert landscapes,Gansu,Q132956,Taklamakan Desert,Такла-Макан,China,38.9,82.2,desert,Taklamakan Desert,Такла-Макан,http://commons.wikimedia.org/wiki/Special:FilePath/Taklamakan-d43.jpg,пустыня,country:People's Republic of China
1424,importable,108,South Island desert landscapes,South Island,Q5023,Cook Strait,Пролив Кука,New Zealand,-41.229444444,174.483055555,water,Cook Strait,Пролив Кука,http://commons.wikimedia.org/wiki/Special:FilePath/Cook%20Strait%20and%20Marlborough%20Sounds%20from%20Mount%20Kaukau.jpg,пролив,country:New Zealand
1436,importable,108,Fomboni river gorges,Fomboni,Q165100,Mozambique Channel,Мозамбикский пролив,Q970,-18,41,water,Mozambique Channel,Мозамбикский пролив,http://commons.wikimedia.org/wiki/Special:FilePath/Satellite%20image%20of%20Mozambique%20in%20September%202002.jpg,пролив,country:Q970
1440,importable,108,Moutsamoudou highland plateau,Moutsamoudou,Q2746954,La Grille,Ла-Грилле,Q970,-11.466666666,43.333333333,mountain,La Grille,Ла-Грилле,http://commons.wikimedia.org/wiki/Special:FilePath/Grande%20Comore%20topographic%20map-fr.svg,гора,country:Q970
1442,importable,108,Bas-Congo forest reserves,Bas-Congo,Q263406,Upemba National Park,Упемба (национальный парк),Democratic Republic of the Congo,-9.01666667,26.58333333,forest,Upemba National Park,Упемба (национальный парк),http://commons.wikimedia.org/wiki/Special:FilePath/Lake%20Upemba%20STS057-104-62.jpg,национальный парк,country:Democratic Republic of the Congo
1444,importable,108,Kasai-Occidental coastal wetlands,Kasai-Occidental,Q683100,Lake Mai-Ndombe,Маи-Ндомбе,Democratic Republic of the Congo,-2,18.33,water,Lake Mai-Ndombe,Маи-Ндомбе,http://commons.wikimedia.org/wiki/Special:FilePath/Lake%20Mai-Ndombe%20NASA.jpg,озеро,country:Democratic Republic of the Congo
1447,importable,108,Kinshasa highland plateau,Kinshasa,Q804039,Mount Bisoke,Високе,Democratic Republic of the Congo,-1.511111111,29.448333333,mountain,Mount Bisoke,Високе,http://commons.wikimedia.org/wiki/Special:FilePath/Visoke.jpg,гора,country:Democratic Republic of the Congo
1448,importable,108,Maniema mountain valleys,Maniema,Q8536218,Itombwe Mountains,Итомбве (горы),Democratic Republic of the Congo,-3.5,28.91666667,mountain,Itombwe Mountains,Итомбве (горы),http://commons.wikimedia.org/wiki/Special:FilePath/Un%20village%20Babembe%2C%20plateau%20d%27Itombwe%2C%202005.jpg,горный хребет,country:Democratic Republic of the Congo
1450,importable,108,Brazzaville forest reserves,Brazzaville,Q263883,Odzala-Kokoua National Park,Одзала,Republic of the Congo,0.8,14.9,forest,Odzala-Kokoua National Park,Одзала,http://commons.wikimedia.org/wiki/Special:FilePath/Primage2.jpg,природоохранная зона,country:Republic of the Congo
1457,importable,108,Aitutaki mountain valleys,Aitutaki,Q498069,Te Manga,Те-Манга,Cook Islands,-21.238903,-159.789056,mountain,Te Manga,Те-Манга,http://commons.wikimedia.org/wiki/Special:FilePath/CookIslands-Rarotonga-TeManga-mgl20030609-01.jpg,гора,country:Cook Islands
1460,importable,108,Mangaia coastal wetlands,Mangaia,Q950725,Penrhyn atoll,Пенрин,Cook Islands,-9.005555555,-157.969444444,water,Penrhyn atoll,Пенрин,http://commons.wikimedia.org/wiki/Special:FilePath/Penhryn%20atoll.jpg,риф,country:Cook Islands
1465,importable,108,Alajuela mountain valleys,Alajuela,Q252362,Cerro Chirripó,Чиррипо-Гранде,Costa Rica,9.484083333,-83.488666666,mountain,Cerro Chirripó,Чиррипо-Гранде,http://commons.wikimedia.org/wiki/Special:FilePath/Picture%201191.jpg,гора,country:Costa Rica
1470,importable,108,Puntarenas lake district,Puntarenas,Q264925,Tárcoles River,Тарколес (река),Costa Rica,9.786313888,-84.641175,forest,Tárcoles River,Тарколес (река),http://commons.wikimedia.org/wiki/Special:FilePath/R%C3%ADo%20T%C3%A1rcoles%20en%20Costa%20Rica%2001.jpg,река,country:Costa Rica
1472,importable,108,Abengourou mountain valleys,Abengourou,Q849129,Mount Richard-Molard,Нимба,Q1008,7.622588194,-8.408058694,mountain,Mount Richard-Molard,Нимба,http://commons.wikimedia.org/wiki/Special:FilePath/Mont%20Nimba%20landscape.jpg,гора,country:Q1008
1477,importable,108,Agboville lake district,Agboville,Q41430,Gulf of Guinea,Гвинейский залив,Q1008,1,4,water,Gulf of Guinea,Гвинейский залив,http://commons.wikimedia.org/wiki/Special:FilePath/Gulf%20of%20Guinea%205.24136E%202.58756N.jpg,залив,country:Q1008
1488,importable,108,Camaguey mountain valleys,Camaguey,Q654527,Sierra Maestra,Сьерра-Маэстра,Cuba,20.06972,-76.42556,mountain,Sierra Maestra,Сьерра-Маэстра,http://commons.wikimedia.org/wiki/Special:FilePath/Sierra%20Maestra%20Guam%C3%A1%209A5538.jpg,горный хребет,country:Cuba
1494,importable,108,Holguin highland plateau,Holguin,Q844875,Valle de los Ingenios,Долина Де-лос-Инхеньос,Cuba,21.841388888,-79.858055555,desert,Valle de los Ingenios,Долина Де-лос-Инхеньос,http://commons.wikimedia.org/wiki/Special:FilePath/Valle%20de%20los%20ingenios2.jpg,долина,country:Cuba
1495,importable,108,Isla de la Juventud mountain valleys,Isla de la Juventud,Q1145743,Pico Turquino,Туркино (пик),Cuba,19.989444444,-76.835833333,mountain,Pico Turquino,Туркино (пик),http://commons.wikimedia.org/wiki/Special:FilePath/PicoTurquino.jpg,гора,country:Cuba
1489,importable,108,Ciego de Avila forest reserves,Ciego de Avila,Q5951909,Zapata Swamp,Сапата (болото),Cuba,22.333333333,-81.616666666,forest,Zapata Swamp,Сапата (болото),http://commons.wikimedia.org/wiki/Special:FilePath/Zapata%20swamp.JPG,природоохранная зона,country:Cuba
1490,importable,108,Cienfuegos river gorges,Cienfuegos,Q193260,Yucatán Channel,Юкатанский пролив,Cuba,21.75,-85.75,water,Yucatán Channel,Юкатанский пролив,http://commons.wikimedia.org/wiki/Special:FilePath/Cuba.A2002334.1625.250m.jpg,пролив,country:Cuba
1491,importable,108,Ciudad de La Habana coastal wetlands,Ciudad de La Habana,Q12630,Gulf of Mexico,Мексиканский залив,Cuba,25,-90,water,Gulf of Mexico,Мексиканский залив,http://commons.wikimedia.org/wiki/Special:FilePath/Golf%20von%20Mexiko%20NASA%20World%20Wind%20Globe.jpg,залив,country:Cuba
1493,importable,108,Guantanamo lake district,Guantanamo,Q208035,Guantánamo Bay,Гуантанамо (залив),Cuba,19.925,-75.15,water,Guantánamo Bay,Гуантанамо (залив),http://commons.wikimedia.org/wiki/Special:FilePath/Blue%20sky%20over%20Guantanamo%20Bay.jpg,залив,country:Cuba
1496,importable,108,Famagusta mountain valleys,Famagusta,Q909107,Kyrenia Mountains,Кириния (горы),Cyprus,35.283,33.534,mountain,Kyrenia Mountains,Кириния (горы),http://commons.wikimedia.org/wiki/Special:FilePath/KyreniaMountainRange.jpg,горный хребет,country:Cyprus
1499,importable,108,Limassol coastal wetlands,Limassol,Q644636,Geography of Cyprus,Кипр (остров),Cyprus,35,33,water,Geography of Cyprus,Кипр (остров),http://commons.wikimedia.org/wiki/Special:FilePath/Cyprus%20lrg.jpg,остров,country:Cyprus
1501,importable,108,Paphos lake district,Paphos,Q905376,Pedieos,Педиеос,Cyprus,34.9436,33.1853,water,Pedieos,Педиеос,http://commons.wikimedia.org/wiki/Special:FilePath/Pedieos%20River.JPG,река,country:Cyprus
1510,importable,108,Arhus mountain valleys,Arhus,Q465816,Dogger Bank,Доггер-банка,Q35,55.25,3.5,mountain,Dogger Bank,Доггер-банка,http://commons.wikimedia.org/wiki/Special:FilePath/Doggerbank.jpg,горный хребет,country:Q35
1511,importable,108,Bornholm forest reserves,Bornholm,Q666502,Møn,Мён,Q35,55,12.333333333,forest,Møn,Мён,http://commons.wikimedia.org/wiki/Special:FilePath/M%C3%B8n%20aerial.jpg,природоохранная зона,country:Q35
1514,importable,108,Fyn desert landscapes,Fyn,Q3801,Limfjord,Лим-фьорд,Q35,56.942777777,9.075,ice_cave,Limfjord,Лим-фьорд,http://commons.wikimedia.org/wiki/Special:FilePath/Limfjord%201%202004%20ubt.jpeg,пролив,country:Q35
1518,importable,108,'Ali Sabih mountain valleys,'Ali Sabih,Q639993,Ardoukoba,Ардукоба,Djibouti,11.571944444,42.495833333,mountain,Ardoukoba,Ардукоба,http://commons.wikimedia.org/wiki/Special:FilePath/Ardoukoba.jpg,гора,country:Djibouti
1520,importable,108,Djibouti river gorges,Djibouti,Q141513,Danakil Desert,Данакиль (пустыня),Djibouti,14.2417,40.3,desert,Danakil Desert,Данакиль (пустыня),http://commons.wikimedia.org/wiki/Special:FilePath/Danakil-Sable.jpg,пустыня,country:Djibouti
1521,importable,108,Obock coastal wetlands,Obock,Q41837,Gulf of Aden,Аденский залив,Djibouti,12,48,water,Gulf of Aden,Аденский залив,http://commons.wikimedia.org/wiki/Special:FilePath/Gulf%20of%20Aden%20map3.png,залив,country:Djibouti
1532,importable,108,Dajabon coastal wetlands,Dajabon,Q25277,Hispaniola,Гаити (остров),Dominican Republic,19,-71,water,Hispaniola,Гаити (остров),http://commons.wikimedia.org/wiki/Special:FilePath/ISS-20%20Caribbean%20island%20of%20Hispaniola%20from%20the%20ISS.jpg,остров,country:Dominican Republic
1515,importable,108,Kobenhavn lake district,Kobenhavn,Q25535,Zealand,Зеландия (остров),Q35,55.57,11.89,water,Zealand,Зеландия (остров),http://commons.wikimedia.org/wiki/Special:FilePath/Seeland.jpg,остров,country:Q35
1535,importable,108,El Seibo highland plateau,El Seibo,Q783742,Pico Duarte,Дуарте (гора),Dominican Republic,19.033055555,-71.005277777,mountain,Pico Duarte,Дуарте (гора),http://commons.wikimedia.org/wiki/Special:FilePath/Pico%20Duarte.jpg,гора,country:Dominican Republic
1537,importable,108,Azuay mountain valleys,Azuay,Q14052,Sangay,Сангай (вулкан),Ecuador,-2.0025,-78.340833333,volcano,Sangay,Сангай (вулкан),http://commons.wikimedia.org/wiki/Special:FilePath/Volcan-Sangay-Ecuador.jpg,гора,country:Ecuador
1540,importable,108,Carchi coastal wetlands,Carchi,Q83582,Fernandina Island,Фернандина,Ecuador,-0.37,-91.55,water,Fernandina Island,Фернандина,http://commons.wikimedia.org/wiki/Special:FilePath/Fernandina%20isabela.jpg,остров,country:Ecuador
1542,importable,108,Cotopaxi lake district,Cotopaxi,Q83639,Isabela Island (Galápagos),"Исабела (остров, Галапагос)",Ecuador,-0.760833333,-91.022777777,water,Isabela Island (Galápagos),"Исабела (остров, Галапагос)",http://commons.wikimedia.org/wiki/Special:FilePath/Elizabeth%20Bay%20-Isabela%20Island%20-birds.jpg,остров,country:Ecuador
1545,importable,108,Ad Daqahliyah mountain valleys,Ad Daqahliyah,Q133423,Valley of the Kings,Долина Царей,Egypt,25.74025,32.602358,desert,Valley of the Kings,Долина Царей,http://commons.wikimedia.org/wiki/Special:FilePath/Luxor%2C%20Tal%20der%20K%C3%B6nige%20%281995%2C%20860x605%29.jpg,долина,country:Egypt
1548,importable,108,Al Fayyum coastal wetlands,Al Fayyum,Q3392,Nile,Нил,Egypt,15.640138888,32.5055,water,Nile,Нил,http://commons.wikimedia.org/wiki/Special:FilePath/Cairo%20skyline%2C%20Panoramic%20view%2C%20Egypt.jpg,река,country:Egypt
1553,importable,108,Ahuachapan mountain valleys,Ahuachapan,Q74214,Cerro El Pital,Серро-Эль-Питаль,El Salvador,14.383333333,-89.116666666,mountain,Cerro El Pital,Серро-Эль-Питаль,http://commons.wikimedia.org/wiki/Special:FilePath/Cerro%20El%20Pital%2C%20Chalatenango.JPG,гора,country:El Salvador
1562,importable,108,Bioko Norte forest reserves,Bioko Norte,Q4736972,Altos de Nsork National Park,Альтос де Нсорк (национальный парк),Equatorial Guinea,1.16,11.12,forest,Altos de Nsork National Park,Альтос де Нсорк (национальный парк),http://commons.wikimedia.org/wiki/Special:FilePath/Altos%20de%20Nsork%20National%20Park%2C%20Equatorial%20Guinea%20%28boundaries%29.png,национальный парк,country:Equatorial Guinea
1564,importable,108,Centro Sur coastal wetlands,Centro Sur,Q205022,Bioko,Биоко,Equatorial Guinea,3.5,8.7,water,Bioko,Биоко,http://commons.wikimedia.org/wiki/Special:FilePath/Malabo%20a%2013-oct-01.jpg,остров,country:Equatorial Guinea
1568,importable,108,Akale Guzay mountain valleys,Akale Guzay,Q230269,Mount Zuqualla,Зукалла (гора),Ethiopia,8.55,38.866666666,mountain,Mount Zuqualla,Зукалла (гора),http://commons.wikimedia.org/wiki/Special:FilePath/Mount%20Zuqualla.jpg,гора,country:Ethiopia
1590,importable,108,Oromiya highland plateau,Oromiya,Q275435,Ras Dashen,Рас-Дашэн,Ethiopia,13.236666666,38.3725,mountain,Ras Dashen,Рас-Дашэн,http://commons.wikimedia.org/wiki/Special:FilePath/Dejen%20misura%20da%20cima%20W.jpg,гора,country:Ethiopia
1559,importable,108,La Union highland plateau,La Union,Q1162021,Mount Masaraga,Масарага,Philippines,13.310277777,123.6,mountain,Mount Masaraga,Масарага,http://commons.wikimedia.org/wiki/Special:FilePath/Masaraga.jpg,гора,country:Philippines
1573,importable,108,Semhar lake district,Semhar,Q1789052,Nora (island),Нора (остров),Eritrea,15.99834,40.07026,water,Nora (island),Нора (остров),http://commons.wikimedia.org/wiki/Special:FilePath/Nora%20%28LANDSAT%29.png,остров,country:Eritrea
1575,importable,108,Seraye mountain valleys,Seraye,Q596806,Nabro Volcano,Набро,Eritrea,13.37,41.7,volcano,Nabro Volcano,Набро,http://commons.wikimedia.org/wiki/Special:FilePath/Nabro%20map.png,гора,country:Eritrea
1587,importable,108,Dire Dawa coastal wetlands,Dire Dawa,Q116685,Lake Tana,Тана (озеро),Ethiopia,12,37.25,water,Lake Tana,Тана (озеро),http://commons.wikimedia.org/wiki/Special:FilePath/ET%20Amhara%20asv2018-02%20img040%20Lake%20Tana%20at%20Gorgora.jpg,озеро,country:Ethiopia
1597,importable,108,Sandoy coastal wetlands,Sandoy,Q192540,Streymoy,Стреймой,Faroe Islands,62.131667,-7.019444,water,Streymoy,Стреймой,http://commons.wikimedia.org/wiki/Special:FilePath/Sk%C3%A6lingsfjall%2C%20Streymoy%20%28faroe%20islands%29.jpg,остров,country:Faroe Islands
1599,importable,108,Streymoy lake district,Streymoy,Q200939,Eysturoy,Эстурой,Faroe Islands,62.21579,-6.87751,water,Eysturoy,Эстурой,http://commons.wikimedia.org/wiki/Special:FilePath/Faroe%20Islands%2C%20Eysturoy%2C%20Oyrarbakki%20%2803%29%2C%20view%20of%20the%20village.jpg,остров,country:Faroe Islands
1571,importable,108,Hamasen coastal wetlands,Hamasen,Q701647,Orchid Island,Ланьюй,Taiwan,22.05,121.533333333,water,Orchid Island,Ланьюй,http://commons.wikimedia.org/wiki/Special:FilePath/06.21%20%E5%89%AF%E7%B8%BD%E7%B5%B1%E5%8F%83%E8%A8%AA%E3%80%8C%E9%87%8E%E9%8A%80%E9%83%A8%E8%90%BD%E5%9C%B0%E4%B8%8B%E5%B1%8B%E3%80%8D%20%2850029231857%29.jpg,остров,country:Taiwan
1600,importable,108,Suduroy highland plateau,Suduroy,Q738746,Slættaratindur,Слаттаратиндур,Faroe Islands,62.2967169,-7.0132,mountain,Slættaratindur,Слаттаратиндур,http://commons.wikimedia.org/wiki/Special:FilePath/Sl%C3%A6ttaratindur%2C%20Faroe%20Islands.JPG,гора,country:Faroe Islands
1603,importable,108,Rotuma coastal wetlands,Rotuma,Q1884674,Mago Island,Манго (остров),Fiji,-17.45,-179.15,water,Mago Island,Манго (остров),http://commons.wikimedia.org/wiki/Special:FilePath/Mago-Fiji%20%28NASA%20Geocover%202000%29.jpg,остров,country:Fiji
1604,importable,108,Aland mountain valleys,Aland,Q13360737,"Koli, Finland",Коли (сопка),Finland,63.094444444,29.808611111,mountain,"Koli, Finland",Коли (сопка),http://commons.wikimedia.org/wiki/Special:FilePath/Koli.jpg,гора,country:Finland
1605,importable,108,Etela-Suomen Laani forest reserves,Etela-Suomen Laani,Q127322,Oulanka National Park,Оуланка (национальный парк),Finland,66.37305556,29.33861111,forest,Oulanka National Park,Оуланка (национальный парк),http://commons.wikimedia.org/wiki/Special:FilePath/FI-Oulanka%20NP1.jpg,природоохранная зона,country:Finland
1607,importable,108,Lansi-Suomen Laani coastal wetlands,Lansi-Suomen Laani,Q121538,Torne (Finnish and Swedish river),Турнеэльвен,Finland,65.80833333,24.14583333,water,Torne (Finnish and Swedish river),Турнеэльвен,http://commons.wikimedia.org/wiki/Special:FilePath/Tornionjoki%20Kukkolankoski%20Vastarannalla%20Ruotsi.jpg,река,country:Finland
1629,importable,108,Haut-Ogooue forest reserves,Haut-Ogooue,Q9055976,Lopé National Park,Национальный парк Лопе,Gabon,-0.525334,11.5428,forest,Lopé National Park,Национальный парк Лопе,http://commons.wikimedia.org/wiki/Special:FilePath/Lop%C3%A9%20National%20Park%20river%20crop.jpg,природоохранная зона,country:Gabon
1631,importable,108,Ngounie coastal wetlands,Ngounie,Q750021,Ogooué River,Огове,Gabon,-0.9611,8.8477,water,Ogooué River,Огове,http://commons.wikimedia.org/wiki/Special:FilePath/Ogoou%C3%A9.JPG,река,country:Gabon
1633,importable,108,Ogooue-Ivindo lake district,Ogooue-Ivindo,Q1650057,Ivindo River,Ивиндо,Gabon,-0.156666666,12.172777777,water,Ivindo River,Ивиндо,http://commons.wikimedia.org/wiki/Special:FilePath/DIGITAL%20CROSSING%20-%20KONGOU%2003.jpg,река,country:Gabon
1642,importable,108,Gaza Strip mountain valleys,Gaza Strip,Q2917083,Hebron Hills,Хевронское нагорье,Palestine,31.44431389,34.99656389,mountain,Hebron Hills,Хевронское нагорье,http://commons.wikimedia.org/wiki/Special:FilePath/A%20family%20harvest%20their%20crops%20in%20the%20South%20Hebron%20Hills..jpg,горный хребет,country:Palestine
1660,importable,108,Brong-Ahafo forest reserves,Brong-Ahafo,Q568693,Kakum National Park,Какум,Ghana,5.353611111,-1.383333333,forest,Kakum National Park,Какум,http://commons.wikimedia.org/wiki/Special:FilePath/Kakum.jpg,природоохранная зона,country:Ghana
1670,importable,108,Aitolia kai Akarnania mountain valleys,Aitolia kai Akarnania,Q1125206,Mount Pentelicus,Пенделикон,Greece,38.08144,23.8825,mountain,Mount Pentelicus,Пенделикон,http://commons.wikimedia.org/wiki/Special:FilePath/%CE%A0%CE%B1%CE%BD%CE%BF%CF%81%CE%B1%CE%BC%CE%B9%CE%BA%CE%AE%20%CE%9D%CE%AD%CE%B1%CF%82%20%CE%A0%CE%B5%CE%BD%CF%84%CE%AD%CE%BB%CE%B7%CF%82.jpg,гора,country:Greece
1677,importable,108,Dhodhekanisos mountain valleys,Dhodhekanisos,Q1137982,Lefka Ori,Лефка-Ори,Greece,35.292778,24.031667,mountain,Lefka Ori,Лефка-Ори,http://commons.wikimedia.org/wiki/Special:FilePath/%CE%95%CE%AF%CF%83%CE%BF%CE%B4%CE%BF%CF%82%20%CE%95%CE%B8%CE%BD%CE%B9%CE%BA%CE%BF%CF%8D%20%CE%94%CF%81%CF%85%CE%BC%CE%BF%CF%8D%20%CE%A3%CE%B1%CE%BC%CE%B1%CF%81%CE%B9%CE%AC%CF%82.jpg,горный хребет,country:Greece
1671,importable,108,Akhaia forest reserves,Akhaia,Q14213239,Korission Lagoon,Корисия (озеро),Greece,39.445277777,19.908055555,forest,Korission Lagoon,Корисия (озеро),http://commons.wikimedia.org/wiki/Special:FilePath/Der%20Korission%20See%20im%20April%202017%2003.jpg,природоохранная зона,country:Greece
1672,importable,108,Argolis river gorges,Argolis,Q258540,Vale of Tempe,Темпейская долина,Greece,39.872778,22.546667,desert,Vale of Tempe,Темпейская долина,http://commons.wikimedia.org/wiki/Special:FilePath/Tempe3.jpg,долина,country:Greece
1675,importable,108,Attiki lake district,Attiki,Q173096,Euboea,Эвбея,Greece,38.5,24,water,Euboea,Эвбея,http://commons.wikimedia.org/wiki/Special:FilePath/Euboea%20from%20space.jpg,остров,country:Greece
1681,importable,108,Carriacou and Petit Martinique mountain valleys,Carriacou and Petit Martinique,Q525281,Mount Saint Catherine (Grenada),Сент-Катерин (гора),Grenada,12.162222222,-61.675277777,mountain,Mount Saint Catherine (Grenada),Сент-Катерин (гора),http://commons.wikimedia.org/wiki/Special:FilePath/Mount%20Saint%20Catherine%20Summit.jpg,гора,country:Grenada
1693,importable,108,Alta Verapaz mountain valleys,Alta Verapaz,Q204657,Santa María (volcano),Санта-Мария (вулкан),Guatemala,14.755833333,-91.551944444,volcano,Santa María (volcano),Санта-Мария (вулкан),http://commons.wikimedia.org/wiki/Special:FilePath/Santiaguito%20from%20Santamaria.jpg,гора,country:Guatemala
1699,importable,108,Guatemala highland plateau,Guatemala,Q338192,Acatenango,Акатенанго,Guatemala,14.500833333,-90.875833333,mountain,Acatenango,Акатенанго,http://commons.wikimedia.org/wiki/Special:FilePath/Volcan%20de%20Fuego%20y%20Acatenango.jpg,гора,country:Guatemala
1700,importable,108,Huehuetenango mountain valleys,Huehuetenango,Q377571,Volcán Atitlán,Атитлан (вулкан),Guatemala,14.583333333,-91.186111111,volcano,Volcán Atitlán,Атитлан (вулкан),http://commons.wikimedia.org/wiki/Special:FilePath/Atitlan-desde-toliman.jpg,гора,country:Guatemala
1694,importable,108,Baja Verapaz forest reserves,Baja Verapaz,Q2048161,Dulce River (Guatemala),"Рио-Дульсе (река, впадает в Карибское море)",Guatemala,15.7475,-88.87222222,forest,Dulce River (Guatemala),"Рио-Дульсе (река, впадает в Карибское море)",http://commons.wikimedia.org/wiki/Special:FilePath/Rio%20Dulce%20Guatemala02.jpg,природоохранная зона,country:Guatemala
1696,importable,108,Chiquimula coastal wetlands,Chiquimula,Q138637,Lake Izabal,Исабаль (озеро),Guatemala,15.5,-89.166666666,water,Lake Izabal,Исабаль (озеро),http://commons.wikimedia.org/wiki/Special:FilePath/Festung%20am%20Lago%20Izabal%2CGuatemala.JPG,озеро,country:Guatemala
1698,importable,108,Escuintla lake district,Escuintla,Q258397,Lake Amatitlán,Аматитлан (озеро),Guatemala,14.4527,-90.5659,water,Lake Amatitlán,Аматитлан (озеро),http://commons.wikimedia.org/wiki/Special:FilePath/Pacaya-09.JPG,озеро,country:Guatemala
1706,importable,108,St. Pierre du Bois lake district,St. Pierre du Bois,Q202023,Herm,Херм,Guernsey,49.472419,-2.449265,water,Herm,Херм,http://commons.wikimedia.org/wiki/Special:FilePath/Herm%20from%20the%20air%20-%20geograph.ci%20-%20372.jpg,остров,country:Guernsey
1712,importable,108,Conakry coastal wetlands,Conakry,Q1390033,Sankarani River,Санкарани (река),Guinea,12.004129,-8.312759,water,Sankarani River,Санкарани (река),http://commons.wikimedia.org/wiki/Special:FilePath/Lac%20S%C3%A9lingu%C3%A92.jpg,река,country:Guinea
1714,importable,108,Dabola lake district,Dabola,Q1582664,Milo River,Мило (река),Guinea,11.070277777,-9.223611111,water,Milo River,Мило (река),http://commons.wikimedia.org/wiki/Special:FilePath/Lit%20du%20fleuve%20Milo.jpg,река,country:Guinea
1715,importable,108,Dalaba highland plateau,Dalaba,Q5616476,Guinea Highlands,Гвинейское нагорье,Guinea,9.5,-10,mountain,Guinea Highlands,Гвинейское нагорье,http://commons.wikimedia.org/wiki/Special:FilePath/Guinea%20Highlands%20map.png,горный хребет,country:Guinea
1716,importable,108,Dinguiraye mountain valleys,Dinguiraye,Q8071340,Ziama Massif,Массиф-дю-Зиама,Guinea,8.2834,-9.3583,mountain,Ziama Massif,Массиф-дю-Зиама,http://commons.wikimedia.org/wiki/Special:FilePath/Lowland%20rainforest%20of%20Ziama%20Massif.jpg,горный хребет,country:Guinea
1725,importable,108,Barima-Waini mountain valleys,Barima-Waini,Q208807,Guiana Highlands,Гвианское плоскогорье,Guyana,5.143333,-60.7625,mountain,Guiana Highlands,Гвианское плоскогорье,http://commons.wikimedia.org/wiki/Special:FilePath/Kukenan%20Tepuy%20at%20Sunset.jpg,горный хребет,country:Guyana
1728,importable,108,East Berbice-Corentyne coastal wetlands,East Berbice-Corentyne,Q589911,Essequibo River,Эссекибо,Guyana,1.417735,-58.803298,water,Essequibo River,Эссекибо,http://commons.wikimedia.org/wiki/Special:FilePath/Essequibo%20River.jpg,река,country:Guyana
1730,importable,108,Mahaica-Berbice lake district,Mahaica-Berbice,Q1146770,Cuyuní River,Куюни,Guyana,6.383333333,-58.683333333,water,Cuyuní River,Куюни,http://commons.wikimedia.org/wiki/Special:FilePath/Essequiborivermap.png,река,country:Guyana
1744,importable,108,Comayagua coastal wetlands,Comayagua,Q7205915,Plátano River,Рио-Платано (река),Honduras,15.3353,-85.2665,water,Plátano River,Рио-Платано (река),http://commons.wikimedia.org/wiki/Special:FilePath/Rio%20platano.jpg,река,country:Honduras
1751,importable,108,Bacs-Kiskun mountain valleys,Bacs-Kiskun,Q1286,Alps,Альпы,Hungary,46.578055555,8.615,mountain,Alps,Альпы,http://commons.wikimedia.org/wiki/Special:FilePath/Alps%202007-03-13%2010.10UTC%201px-250m.jpg,горный хребет,country:Hungary
1757,importable,108,Csongrad highland plateau,Csongrad,Q1288,Carpathian Mountains,Карпаты,Hungary,47,25.5,mountain,Carpathian Mountains,Карпаты,http://commons.wikimedia.org/wiki/Special:FilePath/Morskie%20oko%20o%20swicie.jpg,горный хребет,country:Hungary
1758,importable,108,Debrecen mountain valleys,Debrecen,Q189543,Zengő,Зенгё,Hungary,46.183333333,18.383333333,mountain,Zengő,Зенгё,http://commons.wikimedia.org/wiki/Special:FilePath/ZengofromHosszuheteny.JPG,гора,country:Hungary
1754,importable,108,Bekescsaba coastal wetlands,Bekescsaba,Q134350,Tisza,Тиса,Hungary,45.1358,20.2722,water,Tisza,Тиса,http://commons.wikimedia.org/wiki/Special:FilePath/Tiszap%C3%BCsp%C3%B6ki%2C%20Tisza.jpg,река,country:Hungary
1756,importable,108,Budapest lake district,Budapest,Q140454,Zagyva,Задьва,Hungary,47.172277777,20.202361111,water,Zagyva,Задьва,http://commons.wikimedia.org/wiki/Special:FilePath/Zagyva2.jpg,река,country:Hungary
1759,importable,108,Akranes mountain valleys,Akranes,Q23754534,Mælifell,Майлифедль,Iceland,63.799722222,-18.938333333,mountain,Mælifell,Майлифедль,http://commons.wikimedia.org/wiki/Special:FilePath/20150901%20ens.ch%205DM3%20maelifell%20147.jpg,гора,country:Iceland
1766,importable,108,Dalasysla mountain valleys,Dalasysla,Q27015522,Fagradalsfjall,Фаградальсфьядль,Iceland,63.905,-22.2725,mountain,Fagradalsfjall,Фаградальсфьядль,http://commons.wikimedia.org/wiki/Special:FilePath/Fagradalsfjall%20194309.jpg,гора,country:Iceland
1760,importable,108,Akureyri forest reserves,Akureyri,Q1505991,Jökulsárgljúfur National Park,Йёкюльсаургльювюр,Iceland,65.918888888,-16.520555555,forest,Jökulsárgljúfur National Park,Йёкюльсаургльювюр,http://commons.wikimedia.org/wiki/Special:FilePath/Hafragilsundirlendi.jpg,национальный парк,country:Iceland
1761,importable,108,Arnessysla river gorges,Arnessysla,Q152058,Denmark Strait,Датский пролив,Iceland,67,-24,water,Denmark Strait,Датский пролив,http://commons.wikimedia.org/wiki/Special:FilePath/Iceberg%20mist.jpg,пролив,country:Iceland
1764,importable,108,Austur-Skaftafellssysla lake district,Austur-Skaftafellssysla,Q207136,Þjórsá,Тьоурсау,Iceland,64.227704697,-19.441732038,water,Þjórsá,Тьоурсау,http://commons.wikimedia.org/wiki/Special:FilePath/ThjorsardalurIce.JPG,река,country:Iceland
1767,importable,108,Andaman and Nicobar Islands mountain valleys,Andaman and Nicobar Islands,Q82019,Kangchenjunga,Канченджанга,India,27.7,88.133333,mountain,Kangchenjunga,Канченджанга,http://commons.wikimedia.org/wiki/Special:FilePath/Kangchenjunga%2C%20India.jpg,гора,country:India
1773,importable,108,Chhattisgarh highland plateau,Chhattisgarh,Q161750,Pamir Mountains,Памир,India,39.001944444,71.99975,mountain,Pamir Mountains,Памир,http://commons.wikimedia.org/wiki/Special:FilePath/Gutman%20Karakul%20lake.jpg,горный хребет,country:India
1774,importable,108,Dadra and Nagar Haveli mountain valleys,Dadra and Nagar Haveli,Q1233570,Trisul,Трисул,India,30.312777777,79.777222222,mountain,Trisul,Трисул,http://commons.wikimedia.org/wiki/Special:FilePath/Trisul%20mountain%20%2800283%29.JPG,гора,country:India
1768,importable,108,Andhra Pradesh forest reserves,Andhra Pradesh,Q2663264,Betla National Park,Бетла (национальный парк),India,23.8878,84.1901,forest,Betla National Park,Бетла (национальный парк),http://commons.wikimedia.org/wiki/Special:FilePath/Macaca%20mulatta%20in%20Guiyang.jpg,национальный парк,country:India
1769,importable,108,Arunachal Pradesh river gorges,Arunachal Pradesh,Q2361576,Kashmir Valley,Кашмирская долина,India,34.0333,74.6667,desert,Kashmir Valley,Кашмирская долина,http://commons.wikimedia.org/wiki/Special:FilePath/Dal%20LakeVR.jpg,долина,country:India
1771,importable,108,Bihar desert landscapes,Bihar,Q2682249,Spiti,Спити,India,32.246944444,78.052222222,desert,Spiti,Спити,http://commons.wikimedia.org/wiki/Special:FilePath/Spiti%20River%20Kaza%20Himachal%20Jun18%20D72%207232.jpg,долина,country:India
1775,importable,108,Aceh mountain valleys,Aceh,Q29559,Sorikmarapi,Сорикмарапи,Indonesia,0.686,99.539,mountain,Sorikmarapi,Сорикмарапи,http://commons.wikimedia.org/wiki/Special:FilePath/Sorikmarapi.jpg,гора,country:Indonesia
1781,importable,108,Jambi highland plateau,Jambi,Q29595,Seulawah Agam,Сёлавах-Агам,Indonesia,5.448,95.658,mountain,Seulawah Agam,Сёлавах-Агам,http://commons.wikimedia.org/wiki/Special:FilePath/Seulawaih%20Agam.jpg,гора,country:Indonesia
1782,importable,108,Jawa Barat mountain valleys,Jawa Barat,Q40981,Geureudong,Гойройдонг,Indonesia,4.813055555,96.816666666,mountain,Geureudong,Гойройдонг,http://commons.wikimedia.org/wiki/Special:FilePath/Bur%20ni%20Telong.jpg,гора,country:Indonesia
1770,importable,108,Assam coastal wetlands,Assam,Q175304,Elephanta Island,Гхарапури,India,18.9625,72.933888888,water,Elephanta Island,Гхарапури,http://commons.wikimedia.org/wiki/Special:FilePath/India-Elephanta-Trees.jpg,остров,country:India
1772,importable,108,Chandigarh lake district,Chandigarh,Q185720,Musi River (India),Муси (приток Кришны),India,17.3587104,77.8821284,water,Musi River (India),Муси (приток Кришны),http://commons.wikimedia.org/wiki/Special:FilePath/View%20of%20Musi%20river%20from%20Nayapul.jpg,река,country:India
1776,importable,108,Bali forest reserves,Bali,Q1249723,Betung Kerihun National Park,Бетунг-Керихун,Indonesia,1.22083333,113.35305556,forest,Betung Kerihun National Park,Бетунг-Керихун,http://commons.wikimedia.org/wiki/Special:FilePath/Kawasan%20Hutan%20TN%20Betung%20Kerihun.jpg,природоохранная зона,country:Indonesia
1777,importable,108,Banten river gorges,Banten,Q192790,Sunda Strait,Зондский пролив,Indonesia,-5.970277777,105.769722222,water,Sunda Strait,Зондский пролив,http://commons.wikimedia.org/wiki/Special:FilePath/Straat%20van%20soenda.jpg,пролив,country:Indonesia
1779,importable,108,Gorontalo desert landscapes,Gorontalo,Q194477,Makassar Strait,Макасарский пролив,Indonesia,-0.833333333,118.166666666,water,Makassar Strait,Макасарский пролив,http://commons.wikimedia.org/wiki/Special:FilePath/Makassar%20Strait.png,пролив,country:Indonesia
1783,importable,108,Ardabil mountain valleys,Ardabil,Q278021,Arasbaran,Арасбаран,Iran,38.74,46.7,mountain,Arasbaran,Арасбаран,http://commons.wikimedia.org/wiki/Special:FilePath/Chaparli%20July%202013.jpg,гора,country:Iran
1790,importable,108,Gilan mountain valleys,Gilan,Q490982,Karkas Mountains,Кергес,Iran,33.455555555,51.799722222,mountain,Karkas Mountains,Кергес,http://commons.wikimedia.org/wiki/Special:FilePath/Karkas%20Kooh.jpg,горный хребет,country:Iran
1778,importable,108,Bengkulu coastal wetlands,Bengkulu,Q83067,Timor,Тимор,Indonesia,-9.712225,124.354636111,water,Timor,Тимор,http://commons.wikimedia.org/wiki/Special:FilePath/Timor%20island2.jpg,остров,country:Indonesia
1780,importable,108,Jakarta lake district,Jakarta,Q107640,Komodo (island),Комодо,Indonesia,-8.576942,119.451111,water,Komodo (island),Комодо,http://commons.wikimedia.org/wiki/Special:FilePath/Komodo%20Island%20north%20aerial.jpg,остров,country:Indonesia
1785,importable,108,Azarbayjan-e Sharqi river gorges,Azarbayjan-e Sharqi,Q272514,Great Salt Desert,Деште-Кевир,Iran,34.737555555,54.8271,desert,Great Salt Desert,Деште-Кевир,http://commons.wikimedia.org/wiki/Special:FilePath/Dasht-e%20Kavir%202%2C%20Iran.JPG,пустыня,country:Iran
1787,importable,108,Chahar Mahall va Bakhtiari desert landscapes,Chahar Mahall va Bakhtiari,Q79883,Strait of Hormuz,Ормузский пролив,Iran,26.6,56.5,water,Strait of Hormuz,Ормузский пролив,http://commons.wikimedia.org/wiki/Special:FilePath/%D8%AA%D8%A7%D8%A8%D8%B4%20%D8%A2%D9%81%D8%AA%D8%A7%D8%A8%20%D8%A7%D8%B2%20%D8%A8%DB%8C%D9%86%20%D8%A7%D8%A8%D8%B1%D9%87%D8%A7%20-%20panoramio.jpg,пролив,country:Iran
1791,importable,108,Al Anbar mountain valleys,Al Anbar,Q1068860,Cheekha Dar,Шееха-Дар,Iraq,36.77528,44.91861,mountain,Cheekha Dar,Шееха-Дар,http://commons.wikimedia.org/wiki/Special:FilePath/Cheekhedar.jpg,гора,country:Iraq
1797,importable,108,As Sulaymaniyah highland plateau,As Sulaymaniyah,Q1261898,Sinjar Mountains,Синджар (горы),Iraq,36.36138889,41.7,mountain,Sinjar Mountains,Синджар (горы),http://commons.wikimedia.org/wiki/Special:FilePath/Sinjar%20ISS011-E-10554.jpg,горный хребет,country:Iraq
1798,importable,108,At Ta'mim mountain valleys,At Ta'mim,Q4117159,Mount Korek,Корек,Iraq,36.5818,44.523,mountain,Mount Korek,Корек,http://commons.wikimedia.org/wiki/Special:FilePath/Korak%20Mountain%20and%20Khalifan%20city.jpg,гора,country:Iraq
1793,importable,108,Al Muthanna river gorges,Al Muthanna,Q339162,Syrian desert,Сирийская пустыня,Iraq,33.4,38.75,desert,Syrian desert,Сирийская пустыня,http://commons.wikimedia.org/wiki/Special:FilePath/Valley%20of%20the%20Tombs%2C%20Panoramic%20view%2C%20Palmyra%2C%20Syria.jpg,пустыня,country:Iraq
1795,importable,108,An Najaf desert landscapes,An Najaf,Q11904604,Wadi al-Batin,Эль-Батин,Iraq,29.10138889,46.55527778,desert,Wadi al-Batin,Эль-Батин,http://commons.wikimedia.org/wiki/Special:FilePath/Hafar%20Al-Batin%20in%20Winter%20001.jpg,долина,country:Iraq
1786,importable,108,Bushehr coastal wetlands,Bushehr,Q199551,Lake Urmia,Урмия (озеро),Iran,37.662,45.405,water,Lake Urmia,Урмия (озеро),http://commons.wikimedia.org/wiki/Special:FilePath/Lake%20urmia%201984.jpg,озеро,country:Iran
1788,importable,108,Esfahan lake district,Esfahan,Q221883,Kish Island,Киш (остров),Iran,26.535,53.975,water,Kish Island,Киш (остров),http://commons.wikimedia.org/wiki/Special:FilePath/Kish%20-%20panoramio%20-%20Farid%20Atar%20%282%29.jpg,остров,country:Iran
1796,importable,108,Arbil lake district,Arbil,Q34589,Euphrates,Евфрат,Iraq,31.0043,47.442,water,Euphrates,Евфрат,http://commons.wikimedia.org/wiki/Special:FilePath/F%C4%B1rat%20River%20Gaziantep.IMG%201474.jpg,река,country:Iraq
1799,importable,108,Carlow mountain valleys,Carlow,Q514648,Lugnaquilla,Лугнакилла,Ireland,52.966,-6.463,mountain,Lugnaquilla,Лугнакилла,http://commons.wikimedia.org/wiki/Special:FilePath/Lugnaquilla%20from%20Glenmalure.jpg,гора,country:Ireland
1805,importable,108,Galway highland plateau,Galway,Q601719,Blackstairs Mountains,Блэкстейрс,Ireland,52.583,-6.767,mountain,Blackstairs Mountains,Блэкстейрс,http://commons.wikimedia.org/wiki/Special:FilePath/Blackstairs%20Mts%20pano%202010-03-02.jpg,горный хребет,country:Ireland
1800,importable,108,Cavan forest reserves,Cavan,Q140033,Glenveagh,Гленвей (национальный парк),Ireland,55.016666666,-8.05,forest,Glenveagh,Гленвей (национальный парк),http://commons.wikimedia.org/wiki/Special:FilePath/Glenveagh%20National%20Park%20-%20Lough%20Gleann.JPG,природоохранная зона,country:Ireland
1819,importable,108,Tel Aviv lake district,Tel Aviv,Q40059,Jordan River,Иордан,Israel,31.761388888,35.558333333,water,Jordan River,Иордан,http://commons.wikimedia.org/wiki/Special:FilePath/Aerial%20jordan.jpg,река,country:Israel
1821,importable,108,Basilicata forest reserves,Basilicata,Q955207,Meloria,Мелория,Italy,43.54625,10.21854167,forest,Meloria,Мелория,http://commons.wikimedia.org/wiki/Special:FilePath/Meloria%20south%20lighthouse%2001%20%40andreani.jpg,заповедник,country:Italy
1823,importable,108,Campania coastal wetlands,Campania,Q171009,Drava,Драва,Italy,46.722469444,12.252988888,water,Drava,Драва,http://commons.wikimedia.org/wiki/Special:FilePath/Drauquellen.jpg,река,country:Italy
1825,importable,108,Friuli-Venezia Giulia lake district,Friuli-Venezia Giulia,Q172572,Rubicon,Рубикон,Italy,44.168045,12.44327,water,Rubicon,Рубикон,http://commons.wikimedia.org/wiki/Special:FilePath/Fiume%20rubicone%20by%20stefano%20Bolognini.JPG,река,country:Italy
1822,importable,108,Calabria river gorges,Calabria,Q202207,Po Valley,Паданская низменность,Italy,45.330277777,9.798888888,desert,Po Valley,Паданская низменность,http://commons.wikimedia.org/wiki/Special:FilePath/RisaieVercellesi%20Panorama2.jpg,долина,country:Italy
1824,importable,108,Emilia-Romagna desert landscapes,Emilia-Romagna,Q206975,Strait of Sicily,Тунисский пролив,Italy,37.2,11.2,water,Strait of Sicily,Тунисский пролив,http://commons.wikimedia.org/wiki/Special:FilePath/Tunisia%20-%20Sicily%20-%20South%20Italy.jpg,пролив,country:Italy
1836,importable,108,Jan Mayen mountain valleys,Jan Mayen,Q203942,Galdhøpiggen,Галлхёпигген,Norway,61.633333333,8.3,mountain,Galdhøpiggen,Галлхёпигген,http://commons.wikimedia.org/wiki/Special:FilePath/Galdhopiggen%202004.jpg,гора,country:Norway
1839,importable,108,Aomori river gorges,Aomori,Q52054,Busan Strait,Западный проход,Japan,34.57,128.89,water,Busan Strait,Западный проход,http://commons.wikimedia.org/wiki/Special:FilePath/Saengdo.jpg,пролив,country:Japan
1841,importable,108,Ehime desert landscapes,Ehime,Q52055,Tsushima Strait,Восточный проход,Japan,34.0075,129.49,water,Tsushima Strait,Восточный проход,http://commons.wikimedia.org/wiki/Special:FilePath/Korea%20Strait.png,пролив,country:Japan
1848,importable,108,'Amman mountain valleys,'Amman,Q680161,Mount Nebo,Нево (гора),Jordan,31.767777777,35.725555555,mountain,Mount Nebo,Нево (гора),http://commons.wikimedia.org/wiki/Special:FilePath/Mount%20Nebo%20BW%206.JPG,гора,country:Jordan
1855,importable,108,Az Zarqa' mountain valleys,Az Zarqa',Q337141,Abarim,Аварим,Jordan,31.7539,35.7152,mountain,Abarim,Аварим,http://commons.wikimedia.org/wiki/Special:FilePath/Dead%20Sea%20from%20Mt%20Nebo.jpg,горный хребет,country:Jordan
1849,importable,108,Ajlun forest reserves,Ajlun,Q11202572,Azraq Wetland Reserve,Азрак (оазис),Jordan,31.82909,36.83857,forest,Azraq Wetland Reserve,Азрак (оазис),http://commons.wikimedia.org/wiki/Special:FilePath/Azraq%20view.jpg,природоохранная зона,country:Jordan
1850,importable,108,Al 'Aqabah river gorges,Al 'Aqabah,Q208299,Arabian Desert,Пустыни Аравийского полуострова,Jordan,18.267222222,42.368055555,desert,Arabian Desert,Пустыни Аравийского полуострова,http://commons.wikimedia.org/wiki/Special:FilePath/Arabian%20Desert%20-%20panoramio.jpg,пустыня,country:Jordan
1852,importable,108,Al Karak desert landscapes,Al Karak,Q2463859,Jordan Valley,Иорданская долина,Jordan,32.317222,35.57,desert,Jordan Valley,Иорданская долина,http://commons.wikimedia.org/wiki/Special:FilePath/Satellite%20image%20of%20Israel%20in%20January%202003.jpg,долина,country:Jordan
1851,importable,108,Al Balqa' coastal wetlands,Al Balqa',Q81611,Gulf of Aqaba,Акаба (залив),Jordan,28.75,34.75,water,Gulf of Aqaba,Акаба (залив),http://commons.wikimedia.org/wiki/Special:FilePath/ISS035-E-007148%20Nile%20-%20Sinai%20-%20Dead%20Sea%20-%20Wide%20Angle%20View%20%28cropped%29.jpg,залив,country:Jordan
1853,importable,108,Al Mafraq lake district,Al Mafraq,Q798460,Zarqa River,Эз-Зарка (река),Jordan,32.11525,35.543055555,water,Zarqa River,Эз-Зарка (река),http://commons.wikimedia.org/wiki/Special:FilePath/Jabbok.jpg,река,country:Jordan
1857,importable,108,Almaty mountain valleys,Almaty,Q913329,Ustyurt Plateau,Устюрт,Kazakhstan,43.283333333,55.55,mountain,Ustyurt Plateau,Устюрт,http://commons.wikimedia.org/wiki/Special:FilePath/Ustyurt%20Plateau.png,горный хребет,country:Kazakhstan
1863,importable,108,Bayqongyr highland plateau,Bayqongyr,Q1116019,Kyrgyz Ala-Too Range,Киргизский хребет,Kazakhstan,42.5,73,mountain,Kyrgyz Ala-Too Range,Киргизский хребет,http://commons.wikimedia.org/wiki/Special:FilePath/Kyrgyzstan%20Mounts%20Kyrgyz%20Ala%20Too%20001.jpg,горный хребет,country:Kazakhstan
1864,importable,108,Mangghystau mountain valleys,Mangghystau,Q1262289,Dzungarian Alatau,Джунгарский Алатау,Kazakhstan,45,80,mountain,Dzungarian Alatau,Джунгарский Алатау,http://commons.wikimedia.org/wiki/Special:FilePath/%D0%A0%D0%B0%D1%81%D1%81%D0%B2%D0%B5%D1%82%20%D0%B2%20%D0%B3%D0%BE%D1%80%D0%B0%D1%85%20%D0%94%D0%B6%D1%83%D0%BD%D0%B3%D0%B0%D1%80%D0%B8%D0%B8.jpg,горный хребет,country:Kazakhstan
1859,importable,108,Aqtobe river gorges,Aqtobe,Q4299931,Moiynkum Desert,Мойынкум,Kazakhstan,43.88535,71.877143,desert,Moiynkum Desert,Мойынкум,http://commons.wikimedia.org/wiki/Special:FilePath/%D0%A0%D0%B5%D0%BA%D0%B0%20%D0%A7%D1%83%20-%20panoramio.jpg,пустыня,country:Kazakhstan
1861,importable,108,Atyrau desert landscapes,Atyrau,Q16272920,Alma-Arasan,Алма-Арасан (ущелье),Kazakhstan,43.08638889,76.90694444,desert,Alma-Arasan,Алма-Арасан (ущелье),http://commons.wikimedia.org/wiki/Special:FilePath/Alma-Arasan%20valley%2019.jpg,долина,country:Kazakhstan
1860,importable,108,Astana coastal wetlands,Astana,Q524206,Chu (river),Чу (река),Kazakhstan,44.9775,67.71056,water,Chu (river),Чу (река),http://commons.wikimedia.org/wiki/Special:FilePath/E7840-Shu-city-river-crossing.jpg,река,country:Kazakhstan
1862,importable,108,Batys Qazaqstan lake district,Batys Qazaqstan,Q598256,Ilek (river),Илек (приток Урала),Kazakhstan,49.5,57.4167,water,Ilek (river),Илек (приток Урала),http://commons.wikimedia.org/wiki/Special:FilePath/IlekRiver17.jpg,река,country:Kazakhstan
1867,importable,108,Nairobi Area coastal wetlands,Nairobi Area,Q517633,Lake Elmenteita,Элментейта (озеро),Kenya,-0.446,36.244,water,Lake Elmenteita,Элментейта (озеро),http://commons.wikimedia.org/wiki/Special:FilePath/Elementaita1.jpg,озеро,country:Kenya
1874,importable,108,Arorae coastal wetlands,Arorae,Q30895,Canton Island,Кантон (атолл),Kiribati,-2.810555555,-171.675555555,water,Canton Island,Кантон (атолл),http://commons.wikimedia.org/wiki/Special:FilePath/Canton%20Island.png,остров,country:Kiribati
1837,importable,108,Aichi mountain valleys,Aichi,Q714605,Mount Bandai,Бандай (вулкан),Japan,37.600833333,140.072222222,volcano,Mount Bandai,Бандай (вулкан),http://commons.wikimedia.org/wiki/Special:FilePath/Mt.Bandai%2010.jpg,гора,country:Japan
1843,importable,108,Fukuoka highland plateau,Fukuoka,Q715491,Hokkaido Koma-ga-take,Комагатаке,Japan,42.063333333,140.677222222,mountain,Hokkaido Koma-ga-take,Комагатаке,http://commons.wikimedia.org/wiki/Special:FilePath/Mount%20Hokkaido%20Komagatake%20in%20winter%20202601.jpg,гора,country:Japan
1889,importable,108,Cheju-do river gorges,Cheju-do,Q52052,Korea Strait,Корейский пролив,South Korea,34.599444444,129.796666666,water,Korea Strait,Корейский пролив,http://commons.wikimedia.org/wiki/Special:FilePath/Satellite%20image%20of%20South%20Korea%20in%20January%202004.jpg,пролив,country:South Korea
1898,importable,108,Al Jahra' coastal wetlands,Al Jahra',Q285416,Warbah Island,Варба,Kuwait,29.993888888,48.066666666,water,Warbah Island,Варба,http://commons.wikimedia.org/wiki/Special:FilePath/Ku-map.gif,остров,country:Kuwait
1901,importable,108,Bishkek Shaary forest reserves,Bishkek Shaary,Q4214317,Karatal-Japyryk Nature Reserve,Каратал-Жапырыкский государственный заповедник,Kyrgyzstan,41.6237,75.391,forest,Karatal-Japyryk Nature Reserve,Каратал-Жапырыкский государственный заповедник,http://commons.wikimedia.org/wiki/Special:FilePath/Serenity%20on%20Song-Kul.%20%283968872838%29.jpg,природоохранная зона,country:Kyrgyzstan
1900,importable,108,Batken Oblasty mountain valleys,Batken Oblasty,Q286640,Chüy Valley,Чуйская долина,Kyrgyzstan,42.916666666,75.083333333,desert,Chüy Valley,Чуйская долина,http://commons.wikimedia.org/wiki/Special:FilePath/E8115-Chu-Valley.jpg,долина,country:Kyrgyzstan
1906,importable,108,Talas Oblasty highland plateau,Talas Oblasty,Q332762,Jengish Chokusu,Пик Победы,Kyrgyzstan,42.034662,80.128713,mountain,Jengish Chokusu,Пик Победы,http://commons.wikimedia.org/wiki/Special:FilePath/Jengish%20Chokusu%20from%20BC.jpg,гора,country:Kyrgyzstan
1904,importable,108,Naryn Oblasty desert landscapes,Naryn Oblasty,Q2047083,Boom Gorge,Боомское ущелье,Kyrgyzstan,42.58333333,75.8,desert,Boom Gorge,Боомское ущелье,http://commons.wikimedia.org/wiki/Special:FilePath/E8145-Chu-River.jpg,каньон,country:Kyrgyzstan
1903,importable,108,Jalal-Abad Oblasty coastal wetlands,Jalal-Abad Oblasty,Q155298,Kara Darya,Карадарья,Kyrgyzstan,40.900791,71.75814,water,Kara Darya,Карадарья,http://commons.wikimedia.org/wiki/Special:FilePath/Karadarya%20river.JPG,река,country:Kyrgyzstan
1905,importable,108,Osh Oblasty lake district,Osh Oblasty,Q262224,Kurshab (river),Куршаб (река),Kyrgyzstan,40.70939,73.1256,water,Kurshab (river),Куршаб (река),http://commons.wikimedia.org/wiki/Special:FilePath/Kurshab%20%28river%29.jpg,река,country:Kyrgyzstan
1908,importable,108,Attapu mountain valleys,Attapu,Q239485,Phou Bia,Пхубиа,Laos,18.983333333,103.133333333,mountain,Phou Bia,Пхубиа,http://commons.wikimedia.org/wiki/Special:FilePath/PhouBia%20from%20Nam%20Ngum%20Lake.jpg,гора,country:Laos
1914,importable,108,Louangnamtha highland plateau,Louangnamtha,Q842139,Annamite Range,Чыонгшон,Laos,18.59,103.8,mountain,Annamite Range,Чыонгшон,http://commons.wikimedia.org/wiki/Special:FilePath/Annamite%20range%20pu%20mat%202007%2005.jpg,горный хребет,country:Laos
1913,importable,108,Khammouan lake district,Khammouan,Q38161,Khone Phapheng Falls,Кхон (водопады),Laos,13.959722222,105.986666666,water,Khone Phapheng Falls,Кхон (водопады),http://commons.wikimedia.org/wiki/Special:FilePath/Khone%20Phapheng%20Falls%20-%201.jpg,водопад,country:Laos
1924,importable,108,Beyrouth mountain valleys,Beyrouth,Q202322,Beqaa Valley,Долина Бекаа,Lebanon,34.008888888,36.145277777,desert,Beqaa Valley,Долина Бекаа,http://commons.wikimedia.org/wiki/Special:FilePath/Bekaa%20Libanon%202003.jpg,долина,country:Lebanon
1921,importable,108,Daugavpils lake district,Daugavpils,Q8197,Daugava,Западная Двина,Latvia,57.0619,24.0258,water,Daugava,Западная Двина,http://commons.wikimedia.org/wiki/Special:FilePath/Belarus-Dzvina%20River-6.jpg,река,country:Latvia
1930,importable,108,Butha-Buthe forest reserves,Butha-Buthe,Q284817,Sehlabathebe National Park,Сехлабатебе,Lesotho,-29.9,29.11666667,forest,Sehlabathebe National Park,Сехлабатебе,http://commons.wikimedia.org/wiki/Special:FilePath/Sehlabathebe%20National%20Park.jpg,природоохранная зона,country:Lesotho
1932,importable,108,Mafeteng coastal wetlands,Mafeteng,Q509983,Caledon River,Каледон (река),Lesotho,-30.521666666,26.070277777,water,Caledon River,Каледон (река),http://commons.wikimedia.org/wiki/Special:FilePath/View%20from%20Old%20railway%20bridge.....%20-%20panoramio.jpg,река,country:Lesotho
1934,importable,108,Mohales Hoek lake district,Mohales Hoek,Q181475,Orange River,Оранжевая,Lesotho,-28.630833333,16.45,water,Orange River,Оранжевая,http://commons.wikimedia.org/wiki/Special:FilePath/%C3%9Adol%C3%AD%20%C5%99eky%20Orange%20-%20panoramio.jpg,река,country:Lesotho
1936,importable,108,Qacha's Nek mountain valleys,Qacha's Nek,Q599532,Mont-Aux-Sources,Монт-о-Сурс,Lesotho,-28.759080555,28.884644444,mountain,Mont-Aux-Sources,Монт-о-Сурс,http://commons.wikimedia.org/wiki/Special:FilePath/Mont-Aux-Sources%20square.jpg,гора,country:Lesotho
1945,importable,108,Ajdabiya mountain valleys,Ajdabiya,Q1441442,Gabal El Uweinat,Эль-Увайнат,Libya,21.919444444,24.922222222,mountain,Gabal El Uweinat,Эль-Увайнат,http://commons.wikimedia.org/wiki/Special:FilePath/Africa%20Mt%20Uwaynat-20080330.jpg,гора,country:Libya
1951,importable,108,Al Kufrah highland plateau,Al Kufrah,Q3565020,Wadi Mathendous,Вади-Метхандуш,Libya,25.7633811,12.1703924,desert,Wadi Mathendous,Вади-Метхандуш,http://commons.wikimedia.org/wiki/Special:FilePath/Mathendous%20giraffes.jpg,долина,country:Libya
1952,importable,108,An Nuqat al Khams mountain valleys,An Nuqat al Khams,Q309104,Tibesti Mountains,Тибести,Libya,20.780841937,18.049828259,mountain,Tibesti Mountains,Тибести,http://commons.wikimedia.org/wiki/Special:FilePath/Emi%20Koussi-Tibesti%20Mountains-Chad.jpg,горный хребет,country:Libya
1940,importable,108,Grand Cape Mount coastal wetlands,Grand Cape Mount,Q2503121,Moa River,Моа (река),Liberia,6.97295,-11.59555,water,Moa River,Моа (река),http://commons.wikimedia.org/wiki/Special:FilePath/Tiwai%20Island%20River.jpg,река,country:Liberia
1942,importable,108,Grand Kru lake district,Grand Kru,Q627944,Cavalla River,Кавалли (река),Liberia,4.3635,-7.5278,water,Cavalla River,Кавалли (река),http://commons.wikimedia.org/wiki/Special:FilePath/Cavally.jpg,река,country:Liberia
1950,importable,108,Al Khums lake district,Al Khums,Q187274,Gulf of Sidra,Сидра,Libya,31.5,18,water,Gulf of Sidra,Сидра,http://commons.wikimedia.org/wiki/Special:FilePath/Libya%20BMNG.png,залив,country:Libya
1947,importable,108,Al Fatih river gorges,Al Fatih,Q3089476,Great Sand Sea,Великое песчаное море,Libya,26.9,26.033333333,desert,Great Sand Sea,Великое песчаное море,http://commons.wikimedia.org/wiki/Special:FilePath/SiwaSandDunes.jpg,пустыня,country:Libya
1949,importable,108,Al Jufrah desert landscapes,Al Jufrah,Q3326866,Murzuq Desert,Идехан-Марзук,Libya,25,13,desert,Murzuq Desert,Идехан-Марзук,http://commons.wikimedia.org/wiki/Special:FilePath/Sanddunes%20marzuq%20sandsea.jpg,пустыня,country:Libya
1953,importable,108,Balzers mountain valleys,Balzers,Q63817,Eastern Alps,Восточные Альпы,Liechtenstein,47,12,mountain,Eastern Alps,Восточные Альпы,http://commons.wikimedia.org/wiki/Special:FilePath/Tschierva%20glacier%20rework.jpg,горный хребет,country:Liechtenstein
1959,importable,108,Schaan highland plateau,Schaan,Q75570,Falknis,Фалькнис,Liechtenstein,47.050527777,9.564527777,mountain,Falknis,Фалькнис,http://commons.wikimedia.org/wiki/Special:FilePath/Blick%20auf%20falknis.JPG,гора,country:Liechtenstein
1960,importable,108,Schellenberg mountain valleys,Schellenberg,Q206798,Drei Schwestern,Драй-Швестерн,Liechtenstein,47.175,9.571388888,mountain,Drei Schwestern,Драй-Швестерн,http://commons.wikimedia.org/wiki/Special:FilePath/Drei%20schwestern.JPG,гора,country:Liechtenstein
1956,importable,108,Mauren coastal wetlands,Mauren,Q584,Rhine,Рейн,Liechtenstein,46.632513,8.67481,water,Rhine,Рейн,http://commons.wikimedia.org/wiki/Special:FilePath/Loreleyblick%20Maria%20Ruh%202025.jpg,река,country:Liechtenstein
1958,importable,108,Ruggell lake district,Ruggell,Q156543,Gampriner Seele,Гампринер-Зеле,Liechtenstein,47.225,9.509166666,water,Gampriner Seele,Гампринер-Зеле,http://commons.wikimedia.org/wiki/Special:FilePath/Gampriner%20Seele.jpg,озеро,country:Liechtenstein
